timestamp,latitude,longitude,altitude,northing,easting,down,utm_zone,velocity_north,velocity_east,velocity_down,roll,pitch,yaw
1447164961003312,51.7605907506,-1.2612216121,111.064621,5735841.302189168,619999.5172961736,-111.064621,30U,0.003,-0.004,0.006,0.0019474999999698438,-0.014075899999158831,-0.1683478071800667
1447164961109735,51.760590761,-1.2612216188,111.064003,5735841.303334689,619999.5168062394,-111.064003,30U,0.002,-0.004,0.006,0.001942818072220894,-0.014071996385281844,-0.16834758373428926
1447164961214283,51.7605907877,-1.261221636,111.062416,5735841.306275598,619999.5155484937,-111.062416,30U,0.002,-0.004,0.006,0.0019489837567268418,-0.014076512634160888,-0.16834501082924713
1447164961305707,51.7605908106,-1.2612216508,111.061066,5735841.308797871,619999.5144664441,-111.061066,30U,0.003,-0.004,0.006,0.0019425981956417279,-0.014084592780795324,-0.16833940000061837
1447164961397130,51.7605908195,-1.2612216565,111.060539,5735841.309778229,619999.5140494953,-111.060539,30U,0.003,-0.004,0.006,0.0019449909757237004,-0.014086919852721619,-0.16834547473252634
1447164961495317,51.7605908204,-1.2612216571,111.060486,5735841.309877328,619999.5140057041,-111.060486,30U,0.003,-0.004,0.006,0.0019396072196665975,-0.014085296391084644,-0.16834279097638744
1447164961593956,51.7605908033,-1.2612216461,111.061462,5735841.3079937985,619999.5148101411,-111.061462,30U,0.002,-0.004,0.006,0.0019434072290538558,-0.014083030723332097,-0.1683423126497073
1447164961699882,51.7605907881,-1.2612216363,111.062347,5735841.306319587,619999.51552673,-111.062347,30U,0.002,-0.004,0.006,0.0019392036105317445,-0.01407588917113615,-0.16834473970631048
1447164961806555,51.7605907783,-1.2612216299,111.062897,5735841.305240294,619999.5159943711,-111.062897,30U,0.002,-0.004,0.007,0.0019381234629095995,-0.014078985561507445,-0.16834114946455536
1447164961913008,51.7605907722,-1.261221626,111.063194,5735841.304568352,619999.5162796788,-111.063194,30U,0.002,-0.004,0.006,0.0019385144393513265,-0.014077487365641544,-0.16835416209840617
1447164962017115,51.760590768,-1.2612216233,111.0634,5735841.304105727,619999.5164771392,-111.0634,30U,0.002,-0.004,0.007,0.00193050000087257,-0.014076099999928475,-0.16835930717894274
1447164962108547,51.7605907653,-1.2612216215,111.063507,5735841.303808433,619999.5166085139,-111.063507,30U,0.003,-0.004,0.007,0.0019344325296192738,-0.014074565663529754,-0.16836618192789193
1447164962199980,51.7605907637,-1.2612216205,111.063553,5735841.303632148,619999.5166817658,-111.063553,30U,0.003,-0.005,0.007,0.0019345729273949628,-0.014079212634079116,-0.16836627473228422
1447164962298191,51.7605907628,-1.2612216199,111.063599,5735841.303533049,619999.5167255569,-111.063599,30U,0.003,-0.004,0.007,0.0019267090235641907,-0.014078009023611015,-0.16836119097563623
1447164962396620,51.7605907635,-1.2612216204,111.063538,5735841.303610071,619999.5166891963,-111.063538,30U,0.003,-0.004,0.006,0.0019257036091952866,-0.014081127071772993,-0.1683637288781002
1447164962502777,51.7605907664,-1.2612216222,111.063316,5735841.303929608,619999.5165572908,-111.063316,30U,0.003,-0.004,0.006,0.0019248927798393585,-0.01408310721936788,-0.16836461443896406
1447164962608945,51.7605907714,-1.2612216254,111.06292,5735841.304480375,619999.5163232055,-111.06292,30U,0.003,-0.004,0.006,0.0019202180725175245,-0.014087227107464457,-0.16836064517976324
1447164962707569,51.7605907786,-1.26122163,111.062355,5735841.305273492,619999.5159866748,-111.062355,30U,0.003,-0.004,0.006,0.0019256144385784732,-0.01408959639017871,-0.168360087365553
1447164962806189,51.7605907878,-1.261221636,111.061661,5735841.306286719,619999.515548228,-111.061661,30U,0.003,-0.003,0.006,0.0019232801462250638,-0.014088501805192992,-0.16835951263386625
1447164962904687,51.7605907989,-1.2612216431,111.06086,5735841.307509426,619999.5150288343,-111.06086,30U,0.003,-0.003,0.006,0.001919116242670082,-0.014085812633297447,-0.16835581443826095
1447164963003184,51.7605908114,-1.2612216512,111.060013,5735841.308886179,619999.5144367197,-111.060013,30U,0.003,-0.003,0.005,0.0019196999994543378,-0.014089000000701329,-0.16836080717947904
1447164963101668,51.7605908243,-1.2612216595,111.059189,5735841.310307084,619999.5138297424,-111.059189,30U,0.003,-0.002,0.005,0.0019208126503431427,-0.014087927108412885,-0.16836436204864622
1447164963200153,51.7605908364,-1.2612216673,111.058456,5735841.311639846,619999.5132593908,-111.058456,30U,0.003,-0.003,0.005,0.001917983756114328,-0.014083000000301273,-0.16835445414434988
1447164963298559,51.7605908474,-1.2612216744,111.057831,5735841.312851434,619999.5127402622,-111.057831,30U,0.003,-0.002,0.004,0.001904543315883924,-0.014079085561892267,-0.16836058556106132
1447164963396964,51.7605908572,-1.2612216806,111.057289,5735841.313931056,619999.5122864228,-111.057289,30U,0.003,-0.002,0.004,0.001907212634659229,-0.014084089171275651,-0.16835874873117795
1447164963503150,51.7605908656,-1.261221686,111.056831,5735841.314856304,619999.5118915034,-111.056831,30U,0.003,-0.002,0.004,0.0019046025383961025,-0.01408848195207275,-0.16835992887743959
1447164963609337,51.7605908726,-1.2612216906,111.056465,5735841.315627179,619999.5115555021,-111.056465,30U,0.003,-0.002,0.004,0.0019010777098360182,-0.014084754216769819,-0.16834986024053641
1447164963707764,51.7605908781,-1.2612216941,111.056175,5735841.316233055,619999.5112993886,-111.056175,30U,0.003,-0.002,0.005,0.0019232971247880276,-0.014089465708650967,-0.1683659747328751
1447164963805973,51.760590882,-1.2612216968,111.055962,5735841.316662319,619999.5111027234,-111.055962,30U,0.003,-0.002,0.004,0.0019201812181450391,-0.014094983757322035,-0.1683575837570635
1447164963897419,51.7605908844,-1.2612216983,111.055832,5735841.316926747,619999.5109928467,-111.055832,30U,0.004,-0.001,0.004,0.0018931090234182734,-0.014093176536949437,-0.16836481443798834
1447164963988866,51.760590885,-1.2612216987,111.055801,5735841.316992811,619999.5109636531,-111.055801,30U,0.004,-0.001,0.005,0.001868200000238405,-0.01408660000019224,-0.16837790717896117
1447164964093123,51.7605908848,-1.2612216986,111.055817,5735841.316970735,619999.5109710837,-111.055817,30U,0.003,-0.0,0.003,0.0018922638564546417,-0.014091381928326013,-0.16837429819236988
1447164964199752,51.7605908845,-1.2612216983,111.05584,5735841.316937865,619999.5109925823,-111.05584,30U,0.004,-0.0,0.004,0.0018896379021299317,-0.014077009024998779,-0.16837528736645008
1447164964306440,51.7605908841,-1.2612216981,111.05587,5735841.316893711,619999.5110074442,-111.05587,30U,0.003,-0.001,0.003,0.0018491794125221463,-0.014091763904104786,-0.16838441624303482
1447164964412363,51.7605908839,-1.2612216979,111.055885,5735841.3168717995,619999.511021776,-111.055885,30U,0.003,0.0,0.003,0.001877902538622983,-0.01409319565528606,-0.16837222887764886
1447164964510875,51.760590884,-1.2612216979,111.055885,5735841.3168829195,619999.5110215108,-111.055885,30U,0.003,0.0,0.003,0.0018895108281977524,-0.014066899999431412,-0.16838474405077491
1447164964608924,51.7605908842,-1.2612216981,111.05587,5735841.316904834,619999.5110071792,-111.05587,30U,0.003,-0.001,0.003,0.0019009783133351172,-0.014082958433539806,-0.16839550361465971
1447164964700046,51.7605908845,-1.2612216983,111.055847,5735841.316937865,619999.5109925823,-111.055847,30U,0.004,0.0,0.002,0.0018708685842300948,-0.01409449097582504,-0.16838038917154785
1447164964791167,51.7605908849,-1.2612216986,111.055817,5735841.316981854,619999.5109708186,-111.055817,30U,0.003,0.0,0.003,0.0018676205875786573,-0.014076225267444878,-0.16840175668431062
1447164964896164,51.7605908851,-1.2612216987,111.055801,5735841.317003931,619999.5109633873,-111.055801,30U,0.002,-0.0,0.003,0.0019021584892673523,-0.01410113502540836,-0.16838877219389403
1447164965003144,51.760590885,-1.2612216987,111.055801,5735841.316992811,619999.5109636531,-111.055801,30U,0.003,-0.0,0.003,0.0019096000007298617,-0.014099499999219762,-0.1683863071798703
1447164965109774,51.7605908848,-1.2612216986,111.055817,5735841.316970735,619999.5109710837,-111.055817,30U,0.003,-0.0,0.003,0.0018751192760274617,-0.014090190964513671,-0.16840779638571518
1447164965214512,51.7605908844,-1.2612216983,111.05584,5735841.316926747,619999.5109928467,-111.05584,30U,0.002,-0.001,0.003,0.0018631090249086534,-0.01409262887706477,-0.1683868090248621
1447164965306019,51.7605908841,-1.2612216981,111.05587,5735841.316893711,619999.5110074442,-111.05587,30U,0.003,-0.001,0.002,0.001883467512216321,-0.014103862098873944,-0.16839727473289673
1447164965397526,51.7605908839,-1.2612216979,111.055885,5735841.3168717995,619999.511021776,-111.055885,30U,0.003,-0.0,0.002,0.0018977072189963588,-0.01408493609578584,-0.1683929397067899
1447164965495501,51.760590884,-1.2612216979,111.055885,5735841.3168829195,619999.5110215108,-111.055885,30U,0.003,-0.001,0.001,0.0018908108297097834,-0.014086858488690448,-0.16839709638991776
1447164965593907,51.7605908842,-1.2612216981,111.05587,5735841.316904834,619999.5110071792,-111.05587,30U,0.002,-0.0,0.002,0.00187820722947715,-0.014094632529008694,-0.16840161626559103
1447164965699888,51.7605908845,-1.2612216983,111.055847,5735841.316937865,619999.5109925823,-111.055847,30U,0.002,0.0,0.001,0.001898580147167073,-0.014078998195945899,-0.16839592165766745
1447164965806643,51.7605908849,-1.2612216986,111.055817,5735841.316981854,619999.5109708186,-111.055817,30U,0.003,-0.0,0.001,0.0019071072185177377,-0.014083792781207406,-0.16839829458637456
1447164965913151,51.7605908851,-1.2612216987,111.055801,5735841.317003931,619999.5109633873,-111.055801,30U,0.003,0.0,0.001,0.0018956397054551047,-0.014084305414079314,-0.16839502526703562
1447164966017305,51.760590885,-1.2612216987,111.055801,5735841.316992811,619999.5109636531,-111.055801,30U,0.003,0.001,0.001,0.0018875999998447669,-0.01407630000069812,-0.16839180718009158
1447164966108753,51.7605908848,-1.2612216986,111.055817,5735841.316970735,619999.5109710837,-111.055817,30U,0.002,0.0,0.001,0.0018944271082866843,-0.014083331326625155,-0.16839349277195925
1447164966200201,51.7605908844,-1.2612216983,111.05584,5735841.316926747,619999.5109928467,-111.05584,30U,0.003,-0.0,0.001,0.0018964981945169173,-0.01408308736624764,-0.16838238375650633
1447164966298472,51.7605908841,-1.261221698,111.05587,5735841.316893876,619999.5110143453,-111.05587,30U,0.002,-0.0,0.002,0.0018656776085155208,-0.014072674731930239,-0.16838549999999783
1447164966396963,51.7605908839,-1.2612216979,111.055885,5735841.3168717995,619999.511021776,-111.055885,30U,0.001,-0.001,0.002,0.0018859458553195433,-0.014077289171287675,-0.168390494586029
1447164966503139,51.760590884,-1.2612216979,111.055885,5735841.3168829195,619999.5110215108,-111.055885,30U,0.001,-0.0,0.001,0.0018810711227934549,-0.014073896390848138,-0.16838494946555588
1447164966609309,51.7605908842,-1.2612216981,111.05587,5735841.316904834,619999.5110071792,-111.05587,30U,0.001,0.0,0.003,0.001904512650448966,-0.014075590964180155,-0.16839101084394975
1447164966707701,51.7605908845,-1.2612216983,111.055847,5735841.316937865,619999.5109925823,-111.055847,30U,0.001,0.0,0.002,0.0019043440498978945,-0.014064896391120718,-0.16838069204551429
1447164966806096,51.7605908849,-1.2612216986,111.055817,5735841.316981854,619999.5109708186,-111.055817,30U,0.001,0.0,0.001,0.001919966778266493,-0.014073556683453189,-0.16838408917182363
1447164966904552,51.7605908851,-1.2612216987,111.055786,5735841.317003931,619999.5109633873,-111.055786,30U,0.002,0.0,0.003,0.0018840180484035944,-0.014070928877334143,-0.16838837834289502
1447164967003007,51.7605908852,-1.2612216986,111.055763,5735841.317015218,619999.5109700235,-111.055763,30U,0.001,0.0,0.001,0.0018774000007354685,-0.014067700000764658,-0.16839310717985828
1447164967101468,51.7605908851,-1.2612216983,111.05574,5735841.317004589,619999.5109909913,-111.05574,30U,0.001,0.0,0.002,0.0019128566262891214,-0.014075121687032196,-0.1683917216868835
1447164967199928,51.7605908848,-1.2612216979,111.055725,5735841.316971886,619999.5110193897,-111.055725,30U,0.002,-0.0,0.002,0.0019064054146441937,-0.014062221658334075,-0.1683946054141214
1447164967298408,51.7605908846,-1.2612216975,111.055725,5735841.316950302,619999.5110475231,-111.055725,30U,0.002,0.0,0.001,0.0018922433156746746,-0.01406850000035258,-0.16839768014670203
1447164967396888,51.7605908843,-1.2612216971,111.055717,5735841.3169176,619999.5110759229,-111.055717,30U,0.001,0.0,0.002,0.0018968097584776784,-0.014067198195915433,-0.16839640000005557
1447164967503034,51.760590884,-1.2612216968,111.055725,5735841.31688473,619999.5110974202,-111.055725,30U,0.001,0.0,0.002,0.001903612633022932,-0.014069187366862551,-0.1683897018051229
1447164967609177,51.7605908835,-1.2612216964,111.055733,5735841.316829787,619999.5111263494,-111.055733,30U,0.002,-0.0,0.001,0.0019049506024275107,-0.014063594577956924,-0.16838830361487778
1447164967707603,51.7605908829,-1.261221696,111.055748,5735841.31676372,619999.5111555444,-111.055748,30U,0.001,-0.0,0.001,0.0018783108287308901,-0.014070896389775446,-0.16838719097620625
1447164967805811,51.760590882,-1.2612216956,111.055779,5735841.3166642925,619999.511185534,-111.055779,30U,0.001,-0.001,0.001,0.0018859054142954452,-0.014064303609238901,-0.16837839638951452
1447164967897258,51.7605908811,-1.2612216951,111.055824,5735841.31656503,619999.5112224253,-111.055824,30U,0.001,-0.001,-0.001,0.0018950765365747051,-0.014068662097806859,-0.16838180360906294
1447164967988705,51.7605908803,-1.2612216946,111.055885,5735841.316476887,619999.5112590502,-111.055885,30U,0.001,-0.001,0.0,0.0018762999999930824,-0.014072899999831466,-0.16837130717974283
1447164968093019,51.7605908795,-1.2612216942,111.055962,5735841.31638858,619999.5112887752,-111.055962,30U,0.0,-0.001,-0.001,0.0018686927712634252,-0.014056214458450855,-0.16837716927818805
1447164968199716,51.760590879,-1.2612216939,111.05603,5735841.316333469,619999.5113108034,-111.05603,30U,-0.001,-0.001,-0.002,0.0018721422452330546,-0.01406509278080414,-0.16838176751390868
1447164968306342,51.7605908787,-1.2612216937,111.056099,5735841.316300438,619999.5113254009,-111.056099,30U,-0.0,-0.001,-0.001,0.0019174873670217683,-0.014069696390393566,-0.16836908917169618
1447164968412206,51.7605908785,-1.2612216936,111.056137,5735841.31627836,619999.5113328322,-111.056137,30U,0.001,-0.002,-0.001,0.0019038108291221298,-0.014055099999400945,-0.16837836751304203
1447164968510725,51.7605908783,-1.2612216934,111.056168,5735841.316256449,619999.5113471639,-111.056168,30U,0.0,-0.002,-0.002,0.0018788685835999497,-0.01405528917040258,-0.16837009926529278
1447164968608802,51.7605908781,-1.2612216933,111.05619,5735841.316234372,619999.5113545952,-111.05619,30U,0.0,-0.002,-0.001,0.0018752951807814533,-0.014069407229479082,-0.16836175481995905
1447164968700253,51.7605908779,-1.2612216931,111.056206,5735841.3162124595,619999.511368927,-111.056206,30U,0.0,-0.003,-0.002,0.0018943108292159285,-0.014055316243949937,-0.16837111443779754
1447164968791704,51.7605908776,-1.2612216929,111.056229,5735841.316179428,619999.5113835244,-111.056229,30U,-0.0,-0.003,-0.002,0.0018854360970049133,-0.014057396390184317,-0.168353227073166
1447164968896403,51.7605908773,-1.2612216926,111.056252,5735841.316146558,619999.5114050223,-111.056252,30U,0.0,-0.003,-0.002,0.0018841855616145422,-0.0140556837561852,-0.16835347473189619
1447164969002994,51.760590877,-1.2612216924,111.05629,5735841.316113525,619999.5114196192,-111.05629,30U,-0.001,-0.002,-0.002,0.001859600000304946,-0.014065599999664708,-0.16836080717947904
1447164969109653,51.7605908767,-1.2612216922,111.056328,5735841.316080493,619999.5114342174,-111.056328,30U,-0.0,-0.003,-0.002,0.0018783855427855092,-0.014050854819353356,-0.16835359457841992
1447164969214408,51.7605908765,-1.261221692,111.056358,5735841.31605858,619999.5114485491,-111.056358,30U,0.0,-0.002,-0.002,0.0018496270720219905,-0.014065976536997536,-0.16835651804855026
1447164969305829,51.7605908763,-1.2612216919,111.056389,5735841.316036503,619999.5114559805,-111.056389,30U,-0.0,-0.002,-0.002,0.0018543765370316752,-0.014059507219306948,-0.16835592165732755
1447164969397249,51.7605908762,-1.2612216918,111.056412,5735841.316025549,619999.5114631467,-111.056412,30U,-0.0,-0.002,-0.002,0.001840119853434003,-0.014060101804113883,-0.1683547602942993
1447164969495267,51.7605908762,-1.2612216918,111.056427,5735841.316025549,619999.5114631467,-111.056427,30U,-0.0,-0.002,-0.002,0.0018572332221381694,-0.014047799999234186,-0.16836126209780325
1447164969593724,51.7605908761,-1.2612216918,111.056435,5735841.316014427,619999.511463411,-111.056435,30U,0.0,-0.002,-0.002,0.001853366867550055,-0.014060690964437505,-0.1683502945779381
1447164969699641,51.7605908762,-1.2612216917,111.056442,5735841.3160257125,619999.5114700471,-111.056442,30U,0.001,-0.002,-0.001,0.0018392288768134942,-0.014046248729651064,-0.16836249097540296
1447164969806328,51.7605908762,-1.2612216917,111.05645,5735841.3160257125,619999.5114700471,-111.05645,30U,0.0,-0.002,-0.001,0.0018250765377251523,-0.014042681952102407,-0.16836162887700026
1447164969912988,51.7605908763,-1.2612216917,111.056465,5735841.3160368325,619999.5114697814,-111.056465,30U,0.0,-0.002,-0.001,0.001831734291633761,-0.014045707218561352,-0.16835654765980632
1447164970017264,51.7605908763,-1.2612216917,111.05648,5735841.3160368325,619999.5114697814,-111.05648,30U,0.001,-0.001,-0.001,0.0018149999997164813,-0.014050900000691703,-0.16835620717923055
1447164970108666,51.7605908762,-1.2612216916,111.056511,5735841.316025877,619999.5114769483,-111.056511,30U,0.0,-0.001,-0.002,0.0018140909641742018,-0.014030450602673956,-0.16835897831353308
1447164970200069,51.7605908761,-1.2612216915,111.056541,5735841.31601492,619999.5114841145,-111.056541,30U,0.0,-0.001,-0.002,0.001838438635361422,-0.01404205668440722,-0.168357256684107
1447164970298320,51.7605908759,-1.2612216915,111.056572,5735841.315992679,619999.5114846446,-111.056572,30U,0.0,-0.001,-0.001,0.001836003609584905,-0.014040427072229964,-0.16834999278083984
1447164970396793,51.7605908759,-1.2612216914,111.056587,5735841.315992844,619999.5114915451,-111.056587,30U,0.001,-0.001,-0.003,0.0018269703875151743,-0.014028207219285296,-0.16835608195185672
1447164970502946,51.7605908759,-1.2612216914,111.056602,5735841.315992844,619999.5114915451,-111.056602,30U,0.0,-0.0,-0.002,0.001815110828123983,-0.014029696390053633,-0.16835380902353447
1447164970609099,51.760590876,-1.2612216915,111.056602,5735841.316003801,619999.511484379,-111.056602,30U,0.001,0.0,-0.002,0.0018153397594713088,-0.01402607469921072,-0.1683515801211426
1447164970707563,51.7605908762,-1.2612216916,111.056595,5735841.316025877,619999.5114769483,-111.056595,30U,0.0,-0.0,-0.003,0.0018214108296785055,-0.014022714439491138,-0.16836330541409977
1447164970806025,51.7605908766,-1.2612216918,111.056595,5735841.31607003,619999.5114620858,-111.056595,30U,0.0,-0.0,-0.002,0.001799736097079459,-0.014024565708483398,-0.16835079097575728
1447164970904460,51.7605908768,-1.261221692,111.056595,5735841.316091943,619999.5114477533,-111.056595,30U,-0.0,0.0,-0.003,0.0018200963908029022,-0.014027509024752645,-0.16835769097613013
1447164971002894,51.760590877,-1.2612216921,111.056602,5735841.316114019,619999.5114403227,-111.056602,30U,-0.0,0.0,-0.003,0.001832299999968222,-0.014023100000176194,-0.16834670717932432
1447164971101414,51.760590877,-1.2612216921,111.056618,5735841.316114019,619999.5114403227,-111.056618,30U,0.0,-0.0,-0.003,0.0018177668666890094,-0.014021509036569894,-0.16834220361375296
1447164971199933,51.760590877,-1.261221692,111.056641,5735841.3161141835,619999.5114472231,-111.056641,30U,0.0,0.0,-0.004,0.0017900999998888456,-0.014031569318581913,-0.1683514963907171
1447164971298409,51.7605908768,-1.261221692,111.056671,5735841.316091943,619999.5114477533,-111.056671,30U,-0.001,0.002,-0.002,0.0017722306819617508,-0.014027961363480213,-0.16833702887658175
1447164971396882,51.7605908768,-1.2612216919,111.056686,5735841.316092107,619999.5114546545,-111.056686,30U,-0.001,0.001,-0.003,0.001803893514990941,-0.01398503429239571,-0.16835711517281127
1447164971502958,51.7605908768,-1.261221692,111.056694,5735841.316091943,619999.5114477533,-111.056694,30U,-0.001,-0.0,-0.006,0.0018492711225930217,-0.014021771856975304,-0.1683643776082565
1447164971609030,51.7605908771,-1.2612216921,111.056686,5735841.3161251405,619999.511440057,-111.056686,30U,0.0,0.001,-0.001,0.0018446981924011884,-0.014037970481165209,-0.16832322710781764
1447164971707458,51.7605908775,-1.2612216924,111.056671,5735841.31616913,619999.5114182946,-111.056671,30U,0.001,0.0,-0.003,0.0018251353623022616,-0.013992223462409638,-0.1683677350265801
1447164971805669,51.760590878,-1.2612216927,111.056656,5735841.316224238,619999.5113962658,-111.056656,30U,-0.0,-0.0,-0.004,0.0017798693178912972,-0.014019618782158131,-0.16834350828925673
1447164971897119,51.7605908785,-1.261221693,111.056641,5735841.316279346,619999.511374237,-111.056641,30U,0.0,0.0,-0.001,0.0018138512693813792,-0.014016896389665603,-0.16834243683162894
1447164971988568,51.7605908788,-1.2612216932,111.056633,5735841.316312381,619999.5113596396,-111.056633,30U,0.0,0.0,-0.004,0.0018026999995072325,-0.013998099999963739,-0.16836180717983662
1447164972092884,51.7605908789,-1.2612216933,111.056648,5735841.316323337,619999.511352474,-111.056648,30U,0.001,-0.001,-0.003,0.001782806624991929,-0.014130544579032032,-0.1683395963850658
1447164972199583,51.7605908788,-1.2612216932,111.056664,5735841.316312381,619999.5113596396,-111.056664,30U,0.001,-0.001,-0.002,0.0017724927815461814,-0.014204491709798142,-0.16836014946436775
1447164972306209,51.7605908786,-1.2612216931,111.056694,5735841.316290304,619999.5113670715,-111.056694,30U,0.001,-0.0,-0.003,0.001757146925228802,-0.01421674585497195,-0.16835272887765765
1447164972412069,51.7605908785,-1.261221693,111.056709,5735841.316279346,619999.511374237,-111.056709,30U,0.001,-0.0,-0.003,0.001735436097475495,-0.01425868195254178,-0.16836435126949276
1447164972510551,51.7605908786,-1.2612216931,111.056709,5735841.316290304,619999.5113670715,-111.056709,30U,0.0,0.0,-0.002,0.0017395530743628787,-0.014271998195142613,-0.1683646758029952
1447164972608594,51.760590879,-1.2612216933,111.056694,5735841.316334457,619999.5113522089,-111.056694,30U,0.001,0.0,-0.004,0.0017435054213232391,-0.014276571085191871,-0.16834546686632737
1447164972700054,51.7605908796,-1.2612216937,111.056664,5735841.316400523,619999.511323014,-111.056664,30U,0.001,0.001,-0.003,0.0017292685838644912,-0.014286790975818657,-0.16835673068201304
1447164972791514,51.7605908805,-1.2612216943,111.056625,5735841.316499621,619999.5112792229,-111.056625,30U,0.001,0.001,-0.002,0.001707034291725938,-0.014267055949790398,-0.16833611985325675
1447164972896246,51.7605908811,-1.2612216947,111.056595,5735841.316565688,619999.5112500285,-111.056595,30U,0.001,-0.0,-0.004,0.0017053252670677147,-0.014263420587783456,-0.16835177834167642
1447164973002874,51.7605908816,-1.261221695,111.05658,5735841.316620798,619999.5112279998,-111.05658,30U,0.0,0.001,-0.002,0.0017054000003209556,-0.014300599999916485,-0.16835700717881846
1447164973109495,51.7605908818,-1.2612216952,111.056618,5735841.316642708,619999.511213668,-111.056618,30U,0.001,0.001,-0.002,0.0017051162656351176,-0.014251832530065374,-0.16834435301290673
1447164973214220,51.7605908819,-1.2612216954,111.05674,5735841.316653502,619999.5111996013,-111.05674,30U,0.001,0.001,-0.003,0.001686130682242337,-0.014267111562961687,-0.16835879278154292
1447164973305671,51.7605908818,-1.2612216956,111.0569,5735841.31664205,619999.5111860647,-111.0569,30U,0.002,0.001,-0.002,0.0017023223914377442,-0.01428258629613636,-0.16834513970610443
1447164973397122,51.7605908819,-1.2612216958,111.057014,5735841.316652844,619999.5111719981,-111.057014,30U,0.003,0.002,-0.002,0.0016632812173929916,-0.014269181951060217,-0.16834578736637393
1447164973495023,51.7605908822,-1.261221696,111.057045,5735841.316685875,619999.5111573999,-111.057045,30U,0.002,0.001,-0.002,0.001667005414913531,-0.014244923462707115,-0.1683559162433162
1447164973593354,51.7605908831,-1.2612216962,111.057022,5735841.316785631,619999.5111412121,-111.057022,30U,0.003,0.002,-0.002,0.001682590964278404,-0.014272027712150923,-0.16833113433770175
1447164973699379,51.7605908846,-1.2612216961,111.056938,5735841.316952605,619999.511144136,-111.056938,30U,0.004,0.003,-0.001,0.001712824196371956,-0.014263752339967677,-0.16834090902450694
1447164973806193,51.7605908863,-1.2612216954,111.056831,5735841.317142808,619999.5111879345,-111.056831,30U,0.003,0.003,-0.001,0.0017137108288679565,-0.014237654145428606,-0.16833323609634826
1447164973912820,51.7605908882,-1.261221695,111.056732,5735841.317354759,619999.5112104997,-111.056732,30U,0.005,0.003,-0.002,0.0016889036089980279,-0.014242149464319263,-0.1683352927801215
1447164974017071,51.7605908902,-1.2612216941,111.056671,5735841.317578652,619999.5112673048,-111.056671,30U,0.005,0.002,-0.001,0.0015644000005189563,-0.014259599999218987,-0.16833740718018778
1447164974108494,51.7605908918,-1.2612216948,111.056702,5735841.317755431,619999.5112147564,-111.056702,30U,0.004,0.001,-0.003,0.0015375138561451239,-0.014329275906134408,-0.16837990060327568
1447164974199916,51.7605908917,-1.2612216937,111.056808,5735841.31774612,619999.5112909314,-111.056808,30U,0.0,0.006,-0.002,0.001715691374397913,-0.01436362092450615,-0.1683462974615371
1447164974298180,51.760590892,-1.2612216899,111.056808,5735841.317785735,619999.5115523693,-111.056808,30U,0.008,0.008,0.003,0.0018322584890572927,-0.0143130902410142,-0.16835191156265822
1447164974396665,51.7605908947,-1.2612216864,111.056732,5735841.318091751,619999.511786741,-111.056732,30U,0.01,0.005,0.001,0.001674685498922154,-0.014206231017664215,-0.16837092526679592
1447164974502691,51.7605908969,-1.2612216858,111.056824,5735841.318337392,619999.5118223125,-111.056824,30U,0.005,0.002,-0.005,0.0015826231263560279,-0.014218513032255525,-0.1683263487304139
1447164974608723,51.7605908991,-1.2612216815,111.056999,5735841.318589121,619999.5121132166,-111.056999,30U,0.002,0.006,0.001,0.0018007885585436796,-0.01434926746938277,-0.1682915433727253
1447164974707298,51.7605909033,-1.2612216718,111.056702,5735841.319072148,619999.512771465,-111.056702,30U,0.006,0.008,0.001,0.00210078742837449,-0.014212257356828014,-0.1682466118992053
1447164974805869,51.7605909092,-1.2612216642,111.056824,5735841.319740771,619999.5132802884,-111.056824,30U,0.005,0.005,-0.004,0.00216561296930551,-0.01415787366179008,-0.16809717540540484
1447164974904342,51.7605909143,-1.2612216594,111.057022,5735841.320315822,619999.5135980069,-111.057022,30U,0.005,0.004,0.0,0.0021569285408148146,-0.014270571856227347,-0.16793937506868134
1447164975002815,51.7605909177,-1.2612216601,111.056602,5735841.320692771,619999.513540686,-111.056602,30U,0.001,-0.004,0.006,0.0021646999997910962,-0.01402939999998539,-0.167895807179018
1447164975101251,51.7605909162,-1.2612216849,111.055946,5735841.320485156,619999.5118332464,-111.055946,30U,-0.004,-0.032,0.007,0.0021436692779780724,-0.013569119872476549,-0.1679471747007624
1447164975199686,51.7605909124,-1.2612217562,111.055473,5735841.319945255,619999.5069229974,-111.055473,30U,-0.006,-0.067,0.004,0.0021913209239317957,-0.013308588038773305,-0.16834384163492658
1447164975298044,51.7605909036,-1.2612218793,111.055321,5735841.3187640915,619999.4984513533,-111.055321,30U,-0.013,-0.102,-0.0,0.0020822209229697224,-0.013155093116900536,-0.16895641964151403
1447164975396400,51.7605908879,-1.2612220524,111.055511,5735841.316733336,619999.4865475675,-111.055511,30U,-0.021,-0.136,-0.003,0.0021595058126706985,-0.013058993851879754,-0.1696388113505067
1447164975502639,51.7605908663,-1.2612222733,111.055779,5735841.313967812,619999.4713608061,-111.055779,30U,-0.026,-0.167,-0.002,0.0023039274711300376,-0.012994025604102443,-0.17040756335587812
1447164975608885,51.7605908403,-1.2612225408,111.055908,5735841.310636307,619999.4529699036,-111.055908,30U,-0.032,-0.2,-0.002,0.002549565064677159,-0.012875781322279676,-0.1712396614563868
1447164975707343,51.7605908085,-1.2612228539,111.056213,5735841.306584776,619999.4314475802,-111.056213,30U,-0.038,-0.23,-0.003,0.002806484154095236,-0.012766782288614833,-0.17193261349294886
1447164975805583,51.7605907722,-1.2612232098,111.056412,5735841.301962392,619999.4069836145,-111.056412,30U,-0.043,-0.258,-0.002,0.0029757032742886566,-0.012649981552908428,-0.17246460480468306
1447164975897020,51.7605907317,-1.2612236049,111.056694,5735841.296808444,619999.3798256426,-111.056694,30U,-0.048,-0.284,-0.004,0.003110199664170925,-0.012519921994188249,-0.17289082860349575
1447164975988458,51.7605906856,-1.2612240368,111.057045,5735841.29097119,619999.3501429962,-111.057045,30U,-0.054,-0.31,-0.004,0.003141900000835081,-0.012371300000171124,-0.17317180717882563
1447164976092806,51.7605906376,-1.2612245075,111.057175,5735841.284858804,619999.3177878475,-111.057175,30U,-0.057,-0.337,-0.001,0.0034350620529573456,-0.012086128910103848,-0.17337485662852103
1447164976199544,51.760590586,-1.2612250164,111.057228,5735841.278283221,619999.2828061109,-111.057228,30U,-0.064,-0.361,-0.003,0.0036414390339581906,-0.011854042183768905,-0.1734144552153503
1447164976306185,51.7605905308,-1.2612255593,111.057358,5735841.2712513525,619999.2454876213,-111.057358,30U,-0.069,-0.383,-0.004,0.004016982412246412,-0.011582249738804536,-0.17322233315865526
1447164976412056,51.7605904732,-1.261226132,111.057564,5735841.263903555,619999.2061190342,-111.057564,30U,-0.072,-0.402,-0.006,0.004343087428336364,-0.011281375404839608,-0.17295633062008223
1447164976510522,51.7605904145,-1.2612267328,111.057747,5735841.256387198,619999.1648142174,-111.057747,30U,-0.074,-0.422,-0.004,0.004706021383973567,-0.011066292718039156,-0.17253920060975497
1447164976608547,51.7605903568,-1.2612273628,111.057602,5735841.248934002,619999.1214916937,-111.057602,30U,-0.075,-0.443,-0.001,0.004915739157291519,-0.010690455415832925,-0.17201344698084897
1447164976699954,51.7605902994,-1.2612280234,111.057068,5735841.2414638195,619999.0760567064,-111.057068,30U,-0.076,-0.464,0.002,0.004906178739322602,-0.010256066319262255,-0.17148190348569425
1447164976791361,51.7605902394,-1.2612287131,111.056473,5735841.23365662,619999.0286204588,-111.056473,30U,-0.083,-0.482,0.001,0.005208251667679361,-0.009748395195015512,-0.17077230990924736
1447164976896018,51.7605901751,-1.2612294302,111.055885,5735841.225326151,619998.9793047719,-111.055885,30U,-0.086,-0.502,0.001,0.00540082172072281,-0.00928141471360168,-0.16965856686670036
1447164977002567,51.7605901087,-1.2612301773,111.055382,5735841.216712787,619998.9279243901,-111.055382,30U,-0.09,-0.524,0.002,0.005629900000336811,-0.008865299999697556,-0.16827140717927783
1447164977109263,51.7605900384,-1.2612309534,111.054863,5735841.207618003,619998.8745530961,-111.054863,30U,-0.094,-0.545,0.001,0.005917771709914198,-0.008457047573449318,-0.16657725230391154
1447164977214053,51.7605899621,-1.2612317577,111.054504,5735841.197809582,619998.8192516633,-111.054504,30U,-0.1,-0.564,0.001,0.006312538361004711,-0.00815224251889879,-0.1644746276477186
1447164977305509,51.7605898803,-1.2612325898,111.054184,5735841.187343786,619998.7620463702,-111.054184,30U,-0.102,-0.583,0.001,0.006904481402677719,-0.0078013901791481825,-0.1620352456341082
1447164977396965,51.7605897961,-1.2612334498,111.053711,5735841.176565187,619998.702922096,-111.053711,30U,-0.102,-0.603,0.006,0.007667865496090973,-0.0073140908520899816,-0.1593111267892924
1447164977495009,51.7605897086,-1.2612343392,111.052986,5735841.165371235,619998.6417777148,-111.052986,30U,-0.106,-0.624,0.007,0.008479365159681094,-0.00682696631801104,-0.15604841182863258
1447164977593491,51.7605896167,-1.2612352581,111.05204,5735841.153639439,619998.578609241,-111.05204,30U,-0.108,-0.645,0.01,0.008939974122928972,-0.006208750562836398,-0.1520520003573877
1447164977699403,51.7605895261,-1.2612362082,111.051109,5735841.142000875,619998.5132842464,-111.051109,30U,-0.103,-0.667,0.01,0.009438921719819119,-0.005519632698736394,-0.14766568998451607
1447164977806087,51.7605894383,-1.2612371907,111.049835,5735841.130620379,619998.4457159452,-111.049835,30U,-0.103,-0.69,0.016,0.009749835822941364,-0.0047058875172199385,-0.1430684913280276
1447164977912921,51.7605893453,-1.2612382035,111.048256,5735841.118611757,619998.3760704643,-111.048256,30U,-0.112,-0.709,0.015,0.010202456073863664,-0.003746770539197979,-0.13762577122804545
1447164978017325,51.760589247,-1.2612392415,111.047035,5735841.105972279,619998.3047000167,-111.047035,30U,-0.112,-0.724,0.008,0.010784999999151895,-0.0028494999996068106,-0.1312407071795413
1447164978108601,51.7605891558,-1.2612402968,111.04657,5735841.094093901,619998.2321168906,-111.04657,30U,-0.101,-0.734,0.002,0.011271532557691134,-0.0020430493606125415,-0.12462947251061585
1447164978199878,51.7605890731,-1.2612413626,111.046822,5735841.083143504,619998.1587866361,-111.046822,30U,-0.094,-0.738,-0.007,0.011429705078896306,-0.0014744865698303362,-0.11789774323530451
1447164978298029,51.7605889945,-1.2612424321,111.047867,5735841.072642966,619998.0851901763,-111.047867,30U,-0.092,-0.741,-0.012,0.01161901089150897,-0.0012710707249104,-0.11085469838750972
1447164978396402,51.7605889175,-1.2612435115,111.048988,5735841.062304069,619998.0109062883,-111.048988,30U,-0.091,-0.751,-0.01,0.01200248635840585,-0.0009978429176785333,-0.10349421637497846
1447164978502647,51.7605888439,-1.2612446093,111.04998,5735841.052313002,619997.9353436241,-111.04998,30U,-0.083,-0.766,-0.01,0.012251405813227886,-0.0008152534112802251,-0.09597272285901012
1447164978608890,51.7605887789,-1.2612457289,111.051399,5735841.043242439,619997.8582537649,-111.051399,30U,-0.076,-0.782,-0.016,0.012508943381010357,-0.0008810216952973681,-0.08829052544864939
1447164978707240,51.7605887156,-1.2612468721,111.052849,5735841.034322099,619997.7795307921,-111.052849,30U,-0.076,-0.8,-0.011,0.012598532885571124,-0.0009022436528365333,-0.08002765910625323
1447164978805595,51.7605886546,-1.2612480455,111.053566,5735841.025607844,619997.6987176563,-111.053566,30U,-0.07,-0.822,-0.007,0.012624934290925155,-0.0006916057506635753,-0.07142566559139991
1447164978904117,51.7605886015,-1.2612492478,111.054741,5735841.01772457,619997.61588922,-111.054741,30U,-0.063,-0.838,-0.021,0.012498595257552772,-0.0007182018666942868,-0.06282627782693988
1447164979002638,51.7605885485,-1.2612504705,111.05748,5735841.009818854,619997.5316527402,-111.05748,30U,-0.067,-0.853,-0.031,0.012647200000735574,-0.0012438999993660423,-0.053663107178740135
1447164979101129,51.7605884952,-1.2612517183,111.059959,5735841.001838477,619997.4456849354,-111.059959,30U,-0.06,-0.875,-0.018,0.013116613094135568,-0.0015069032733953153,-0.04388944943537812
1447164979199619,51.7605884561,-1.2612530052,111.061241,5735840.995372902,619997.3569812377,-111.061241,30U,-0.042,-0.906,-0.01,0.01355777806849862,-0.0013736512072766102,-0.03425101300265785
1447164979298215,51.7605884258,-1.2612543393,111.062401,5735840.989808281,619997.2649969938,-111.062401,30U,-0.04,-0.939,-0.013,0.013742630682251466,-0.0012511606301408625,-0.024199832669759034
1447164979396815,51.7605883996,-1.2612557226,111.06385,5735840.984618657,619997.169606647,-111.06385,30U,-0.031,-0.974,-0.016,0.01358114579316138,-0.001193144049718198,-0.013287398591482116
1447164979502809,51.7605883858,-1.2612571583,111.065628,5735840.980721777,619997.0705673639,-111.065628,30U,-0.014,-1.011,-0.018,0.013115741722798547,-0.0012984256664666472,-0.00211752566299055
1447164979608803,51.7605883853,-1.2612586477,111.067245,5735840.978215588,619996.9677870454,-111.067245,30U,-0.004,-1.05,-0.014,0.012579612572256382,-0.0013588252670901075,0.009175145184646065
1447164979707386,51.7605883903,-1.2612601933,111.068604,5735840.976228568,619996.8611138526,-111.068604,30U,0.001,-1.089,-0.014,0.012250126275701333,-0.0013922505964298142,0.021264771373287753
1447164979805749,51.7605884057,-1.2612617925,111.070122,5735840.975309906,619996.750714215,-111.070122,30U,0.019,-1.123,-0.016,0.011917680085739808,-0.001589765769382755,0.03384461508647829
1447164979897252,51.7605884394,-1.2612634421,111.071785,5735840.976343396,619996.6367880141,-111.071785,30U,0.038,-1.157,-0.017,0.011823203945507453,-0.001619713704720788,0.04646644255694454
1447164979988755,51.760588483,-1.2612651356,111.073692,5735840.978405602,619996.51980608,-111.073692,30U,0.046,-1.189,-0.022,0.011746400000480486,-0.0017685999991825334,0.059615500000660446
1447164980092844,51.7605885374,-1.2612668775,111.075928,5735840.981589205,619996.3994554867,-111.075928,30U,0.059,-1.222,-0.021,0.01267480131820502,-0.00214367733267257,0.07350520169357991
1447164980199265,51.7605886096,-1.2612686693,111.077614,5735840.98667018,619996.2756141607,-111.077614,30U,0.086,-1.257,-0.013,0.013440301928768935,-0.0023816931780959874,0.0873870709492097
1447164980305894,51.7605887073,-1.2612705085,111.078766,5735840.994508933,619996.1484342095,-111.078766,30U,0.111,-1.288,-0.012,0.013831240838935705,-0.002455914836936129,0.10130265229002994
1447164980411767,51.760588823,-1.2612723938,111.079788,5735841.004273554,619996.0180252282,-111.079788,30U,0.128,-1.321,-0.008,0.013746792718304146,-0.0025151469257364066,0.11617621209743982
1447164980510269,51.7605889583,-1.2612743265,111.080528,5735841.016139832,619995.8842932647,-111.080528,30U,0.156,-1.353,-0.007,0.013884334353429308,-0.002527820586975874,0.13171264932658597
1447164980608338,51.7605891197,-1.2612763026,111.081558,5735841.030837195,619995.7474971196,-111.081558,30U,0.184,-1.382,-0.017,0.014110050933427088,-0.0026139026010773463,0.14716620561161445
1447164980699925,51.7605893029,-1.2612783176,111.083832,5735841.047894856,619995.6079587342,-111.083832,30U,0.203,-1.408,-0.025,0.01440884197083834,-0.0030388275328420145,0.1629281519901221
1447164980791512,51.7605895052,-1.2612803691,111.085922,5735841.067016506,619995.465850888,-111.085922,30U,0.228,-1.432,-0.017,0.014726485623733302,-0.0033261011320473766,0.17968534715980777
1447164980896284,51.760589736,-1.2612824534,111.087746,5735841.089253576,619995.3214039898,-111.087746,30U,0.266,-1.453,-0.02,0.014711734230049813,-0.0038466272589881977,0.19695624428363623
1447164981002940,51.7605899963,-1.2612845595,111.089874,5735841.114735369,619995.1753744861,-111.089874,30U,0.3,-1.474,-0.02,0.01443239999922142,-0.004298999999533283,0.21414470000008445
1447164981109586,51.760590283,-1.2612867035,111.09201,5735841.143090654,619995.0266595552,-111.09201,30U,0.317,-1.496,-0.024,0.014146401406667872,-0.004432980208289274,0.23191373764914097
1447164981214329,51.7605905915,-1.2612888758,111.094398,5735841.1738236835,619994.8759338772,-111.094398,30U,0.351,-1.513,-0.022,0.014582661550301884,-0.004904014899314601,0.25031625321940654
1447164981305760,51.7605909334,-1.2612910716,111.096107,5735841.208232345,619994.7234979387,-111.096107,30U,0.389,-1.529,-0.014,0.01529626222294243,-0.004990547660403364,0.26873042253809254
1447164981397192,51.7605913105,-1.2612932871,111.097855,5735841.246523059,619994.5696092009,-111.097855,30U,0.428,-1.54,-0.02,0.01573093068214916,-0.005136430407283377,0.2874530937839749
1447164981495227,51.760591722,-1.2612955213,111.099365,5735841.288608512,619994.414338794,-111.099365,30U,0.463,-1.555,-0.008,0.015525680482222744,-0.005354167849831855,0.30703426695998226
1447164981593703,51.7605921641,-1.2612977755,111.09964,5735841.334063975,619994.2576070814,-111.09964,30U,0.499,-1.569,-0.001,0.015362830009128659,-0.005136253012018204,0.3277441877339734
1447164981699604,51.7605926433,-1.2613000457,111.100395,5735841.383618875,619994.099672866,-111.100395,30U,0.541,-1.579,-0.014,0.01579399571819034,-0.004901812969241005,0.34875594983112956
1447164981806272,51.7605931582,-1.2613023262,111.102226,5735841.437126903,619993.9409332093,-111.102226,30U,0.579,-1.583,-0.018,0.015710752738680635,-0.0046916234002649815,0.3698502354551525
1447164981912884,51.7605937066,-1.2613046133,111.103821,5735841.494349486,619993.7816492763,-111.103821,30U,0.615,-1.59,-0.014,0.016269354331537787,-0.004255824135254568,0.3915145190000963
1447164982017125,51.760594283,-1.2613069033,111.104935,5735841.554681084,619993.6220909836,-111.104935,30U,0.659,-1.595,-0.004,0.01705780000037951,-0.003985599999522812,0.4136060000002107
1447164982108569,51.7605949091,-1.2613092028,111.10498,5735841.620524011,619993.4617453379,-111.10498,30U,0.71,-1.595,0.003,0.017290681827163163,-0.002814339732705476,0.43544632435279723
1447164982200014,51.7605955786,-1.2613115014,111.104645,5735841.691194779,619993.3013467353,-111.104645,30U,0.755,-1.597,0.003,0.015736403237067948,-0.0010718281699261636,0.4574010587676206
1447164982298238,51.7605962878,-1.2613138077,111.104767,5735841.766267777,619993.1403115108,-111.104767,30U,0.797,-1.607,-0.004,0.014685590454491998,-3.440061059907493e-05,0.4799848733312143
1447164982396682,51.7605970354,-1.2613161324,111.105621,5735841.84558083,619992.9779047172,-111.105621,30U,0.845,-1.62,-0.012,0.014568167301213077,0.00016172453326835824,0.5026193284834282
1447164982502830,51.7605978307,-1.2613184766,111.107094,5735841.930166352,619992.8140257893,-111.107094,30U,0.898,-1.635,-0.015,0.01644770383104441,-0.00014196763651924368,0.5249904905828519
1447164982608984,51.7605986703,-1.261320841,111.108543,5735842.019645082,619992.6486354349,-111.108543,30U,0.947,-1.65,-0.012,0.01888241352843405,-0.0012326493766242255,0.547783630810603
1447164982707505,51.7605995609,-1.2613232179,111.109138,5735842.114774777,619992.4822472575,-111.109138,30U,1.011,-1.652,-0.003,0.0211743874018328,-0.0019689357603423783,0.5710879817444291
1447164982806022,51.7606005115,-1.261325594,111.109688,5735842.216578175,619992.3157552129,-111.109688,30U,1.08,-1.65,-0.009,0.021816322790661955,-0.002384937689324909,0.5943583178412715
1447164982904411,51.7606015203,-1.2613279715,111.110687,5735842.324851487,619992.1490122546,-111.110687,30U,1.136,-1.655,-0.012,0.02192256356706347,-0.003324516826872171,0.6177862428351799
1447164983002800,51.7606025611,-1.2613303439,111.112244,5735842.436691797,619991.9825364046,-111.112244,30U,1.19,-1.662,-0.012,0.022336899999899316,-0.004259999999550915,0.6417052000000281
1447164983101338,51.7606036693,-1.2613327332,111.113548,5735842.555999614,619991.8147156144,-111.113548,30U,1.256,-1.659,-0.014,0.02274819853183777,-0.005104317562050511,0.6654483001910183
1447164983199875,51.7606048362,-1.2613351159,111.115044,5735842.681846111,619991.6471946557,-111.115044,30U,1.318,-1.654,-0.015,0.023006806272685715,-0.0059723153591420865,0.6887070153010155
1447164983298251,51.7606060563,-1.2613374974,111.116203,5735842.813610767,619991.4796154653,-111.116203,30U,1.375,-1.657,-0.011,0.02383199302818146,-0.0066163005219859765,0.7119701348191934
1447164983396621,51.7606073267,-1.2613398794,111.117882,5735842.950968284,619991.3118684182,-111.117882,30U,1.431,-1.653,-0.03,0.025626370212220386,-0.007661703583241539,0.7351144704555943
1447164983502807,51.76060865,-1.2613422464,111.122986,5735843.094233305,619991.1450162553,-111.122986,30U,1.495,-1.635,-0.066,0.027077834814094103,-0.010276828152160059,0.7574810110453316
1447164983608999,51.7606100345,-1.2613445788,111.129097,5735843.244361082,619990.9803895423,-111.129097,30U,1.565,-1.609,-0.053,0.02689017769010742,-0.013241456165663494,0.779232778362075
1447164983707471,51.7606114704,-1.2613468853,111.134178,5735843.400247488,619990.8174138878,-111.134178,30U,1.607,-1.606,-0.048,0.02615303805156988,-0.01563718605653021,0.8015159011374355
1447164983805724,51.7606129492,-1.2613491966,111.136925,5735843.560896753,619990.6539932601,-111.136925,30U,1.671,-1.604,-0.003,0.025394350075432396,-0.01725446442480587,0.8243415862387506
1447164983897182,51.7606144951,-1.2613514906,111.134933,5735843.729036434,619990.4915885899,-111.134933,30U,1.747,-1.591,0.038,0.026221070088713386,-0.017314387304452113,0.8458424617320097
1447164983988640,51.7606160779,-1.2613537623,111.132065,5735843.901316325,619990.3306249914,-111.132065,30U,1.804,-1.592,0.029,0.027656399999553022,-0.017484200000652157,0.8667106000008502
1447164984092890,51.7606177336,-1.2613560421,111.129929,5735844.081689836,619990.1689091538,-111.129929,30U,1.868,-1.577,0.013,0.029473911590894977,-0.01811061449583858,0.8873904927428533
1447164984199509,51.7606194494,-1.2613582977,111.129364,5735844.26878667,619990.0087039951,-111.129364,30U,1.935,-1.562,0.003,0.031691666353634296,-0.018888262683517513,0.9074398806028736
1447164984306125,51.7606212214,-1.2613605264,111.128754,5735844.462177563,619989.8502061788,-111.128754,30U,1.991,-1.536,0.007,0.03298435298656663,-0.01984213273405974,0.926965450194689
1447164984411981,51.760623035,-1.2613627169,111.128319,5735844.660257496,619989.6942342126,-111.128319,30U,2.028,-1.512,0.006,0.03394712832828974,-0.02082587926266976,0.9465401957751017
1447164984510499,51.7606248823,-1.2613648647,111.127129,5735844.862155341,619989.5411195821,-111.127129,30U,2.067,-1.475,0.016,0.03503776696399819,-0.021388280208670372,0.9662903993226705
1447164984608572,51.7606267642,-1.2613669541,111.125114,5735845.067997009,619989.3919433379,-111.125114,30U,2.109,-1.429,0.024,0.03525563854731699,-0.02191450244102722,0.9852651655103225
1447164984699973,51.7606286779,-1.2613689778,111.122536,5735845.27748314,619989.2472166647,-111.122536,30U,2.137,-1.388,0.029,0.03498413924610845,-0.02229931951634017,1.00306292482813
1447164984791375,51.7606306097,-1.2613709494,111.120102,5735845.4890678255,619989.1060373682,-111.120102,30U,2.152,-1.354,0.015,0.033843378429946135,-0.022454988559955567,1.0199396556609692
1447164984896148,51.7606325568,-1.2613728657,111.119049,5735845.702444954,619988.9686336993,-111.119049,30U,2.171,-1.312,0.015,0.03396392578890864,-0.023328051058190333,1.0355099148490183
1447164985002831,51.7606344973,-1.2613747164,111.117455,5735845.915196053,619988.8357745102,-111.117455,30U,2.184,-1.278,0.033,0.03389859999996208,-0.023535999999652585,1.0494719000004262
1447164985109499,51.760636463,-1.2613765329,111.114265,5735846.130805822,619988.7052086161,-111.114265,30U,2.185,-1.249,0.03,0.03486744644679898,-0.023473767471701972,1.0631749254967584
1447164985214240,51.7606384303,-1.2613783126,111.111443,5735846.346654069,619988.5771780108,-111.111443,30U,2.19,-1.22,0.029,0.035957024904942576,-0.023453477607249834,1.0771360948097155
1447164985305489,51.7606404016,-1.2613800383,111.108963,5735846.563035989,619988.4528632796,-111.108963,30U,2.194,-1.178,0.019,0.03764665907385891,-0.0232977096959683,1.0907929448840101
1447164985396738,51.7606423787,-1.2613817011,111.10704,5735846.780166392,619988.3328738264,-111.10704,30U,2.201,-1.133,0.026,0.03765997219406571,-0.023345406821711674,1.1039954159460765
1447164985494919,51.7606443564,-1.2613833101,111.104179,5735846.997452035,619988.2165954598,-111.104179,30U,2.198,-1.105,0.025,0.03852495913588197,-0.02286132554145495,1.1174623138669577
1447164985593562,51.7606463311,-1.2613848832,111.101822,5735847.214463126,619988.1028024679,-111.101822,30U,2.203,-1.074,0.027,0.038680726483422155,-0.022616469864139364,1.1305712898819973
1447164985699468,51.7606483134,-1.2613863945,111.098732,5735847.432421062,619987.9932540709,-111.098732,30U,2.21,-1.026,0.038,0.039297713217880115,-0.02225225227817851,1.1425547332862926
1447164985806126,51.760650298,-1.2613878533,111.094948,5735847.650721152,619987.8873225397,-111.094948,30U,2.204,-0.999,0.035,0.03937177907641392,-0.021388306236765506,1.1541927260663323
1447164985912830,51.7606522805,-1.2613892703,111.091904,5735847.868856478,619987.7842811471,-111.091904,30U,2.205,-0.971,0.032,0.03930252881516049,-0.020479902751512007,1.165741734691809
1447164986017144,51.7606542509,-1.261390631,111.089005,5735848.085738838,619987.6851570305,-111.089005,30U,2.207,-0.935,0.034,0.03887739999926859,-0.020165699999529385,1.176893199999199
1447164986108549,51.7606562349,-1.2613919553,111.08519,5735848.304193491,619987.58850878,-111.08519,30U,2.206,-0.908,0.042,0.03962247711948218,-0.019499204201330483,1.1873953652077656
1447164986199954,51.7606582142,-1.2613932497,111.081787,5735848.5221746685,619987.4939363564,-111.081787,30U,2.198,-0.887,0.02,0.03828451473985356,-0.01877908556169178,1.1976085831755285
1447164986298187,51.7606601929,-1.2613944993,111.079605,5735848.740162829,619987.4024571191,-111.079605,30U,2.202,-0.853,0.03,0.038000029948154754,-0.019089449465475302,1.2078336942775816
1447164986396641,51.7606621729,-1.2613957034,111.077087,5735848.958370418,619987.3141143369,-111.077087,30U,2.201,-0.821,0.018,0.036296637130578804,-0.01930099103804842,1.2169390834743703
1447164986502798,51.7606641595,-1.2613968704,111.074547,5735849.177373007,619987.2283142834,-111.074547,30U,2.213,-0.807,0.037,0.03613110599930526,-0.01878521419111238,1.2249836696466336
1447164986608958,51.7606661499,-1.2613980369,111.070526,5735849.396799004,619987.142538666,-111.070526,30U,2.215,-0.81,0.033,0.03703456868433916,-0.017773176498410072,1.2333067374720939
1447164986707452,51.7606681434,-1.261399189,111.068428,5735849.616593435,619987.0577485618,-111.068428,30U,2.224,-0.783,0.019,0.03722804490883958,-0.017586441051385442,1.2418190415657775
1447164986805944,51.7606701476,-1.2614002949,111.066689,5735849.837653784,619986.9761182951,-111.066689,30U,2.235,-0.758,0.014,0.0385661435637762,-0.016709144996995905,1.2497614197839864
1447164986904369,51.76067216,-1.2614013771,111.065407,5735850.059665018,619986.896101799,-111.065407,30U,2.243,-0.744,0.014,0.0385392100947997,-0.016554567114030236,1.2574589677805066
1447164987002794,51.7606741781,-1.2614024346,111.064682,5735850.282350766,619986.81777471,-111.064682,30U,2.25,-0.735,0.008,0.03990760000006485,-0.01662240000037944,1.2652060999998815
1447164987101248,51.760676207,-1.2614034865,111.062721,5735850.506246756,619986.7398054431,-111.062721,30U,2.269,-0.718,0.031,0.039773318673143675,-0.01612666324382629,1.2729660260115083
1447164987199703,51.7606782541,-1.2614044995,111.059677,5735850.732230703,619986.6644723653,-111.059677,30U,2.286,-0.692,0.026,0.03890373245189986,-0.015495947934477042,1.2803287695222008
1447164987298131,51.7606803171,-1.2614054832,111.05793,5735850.960031034,619986.5911190921,-111.05793,30U,2.308,-0.675,0.016,0.036634500511869915,-0.0154064722550541,1.2876031131133343
1447164987396559,51.7606824019,-1.261406445,111.055206,5735851.190291699,619986.519219315,-111.055206,30U,2.326,-0.665,0.037,0.03457240241487093,-0.015067163318772659,1.2941183750256846
1447164987502726,51.7606844969,-1.2614074055,111.051102,5735851.421688806,619986.447382214,-111.051102,30U,2.334,-0.674,0.042,0.0365965292229113,-0.01310684850929608,1.2999932630027848
1447164987608894,51.7606866041,-1.2614083814,111.048027,5735851.654417297,619986.3744500412,-111.048027,30U,2.357,-0.675,0.02,0.039164201232093215,-0.011320114448428207,1.3054676554984552
1447164987707349,51.7606887367,-1.2614093341,111.046509,5735851.8900085995,619986.303051533,-111.046509,30U,2.389,-0.648,0.016,0.04075338140336936,-0.011578653198156144,1.310662011945461
1447164987805583,51.7606908978,-1.261410254,111.044952,5735852.128823246,619986.2338409531,-111.044952,30U,2.417,-0.632,0.01,0.04002179500981258,-0.012201138025190506,1.3153861504561901
1447164987896992,51.7606930822,-1.2614111623,111.044304,5735852.370248086,619986.1653691056,-111.044304,30U,2.443,-0.631,0.007,0.038792454232907406,-0.012610252738337012,1.3194640733972096
1447164987988401,51.7606952894,-1.2614120698,111.043259,5735852.614209749,619986.0968920228,-111.043259,30U,2.467,-0.634,0.013,0.0383703000008583,-0.012626600000002002,1.3227159999995428
1447164988092714,51.7606975133,-1.261412996,111.042389,5735852.859997795,619986.0270802091,-111.042389,30U,2.487,-0.648,0.007,0.03988310905828999,-0.012792067475627066,1.3255700036519873
1447164988199417,51.7606997603,-1.2614139258,111.040939,5735853.108348783,619985.9569587283,-111.040939,30U,2.516,-0.636,0.015,0.041306386941809846,-0.012813409422806978,1.3278576614622817
1447164988306049,51.7607020329,-1.2614148313,111.039818,5735853.359586636,619985.8884462905,-111.039818,30U,2.545,-0.618,0.011,0.041648023922165975,-0.01327351343088633,1.3296574328586452
1447164988411918,51.7607043299,-1.2614157256,111.038391,5735853.61355635,619985.8206420656,-111.038391,30U,2.57,-0.627,0.019,0.041633450747543065,-0.013346242183953534,1.3312710472973648
1447164988510427,51.7607066461,-1.2614166427,111.036636,5735853.869623717,619985.7512135471,-111.036636,30U,2.586,-0.642,-0.003,0.04183018960502603,-0.013274947845440045,1.3329317848631792
1447164988608494,51.7607089752,-1.2614175856,111.03904,5735854.1270832,619985.6799704137,-111.03904,30U,2.608,-0.655,-0.025,0.044209981351621734,-0.01543596208160606,1.3345414445969987
1447164988699922,51.7607113326,-1.2614185208,111.038956,5735854.387702494,619985.609183623,-111.038956,30U,2.645,-0.635,0.022,0.04588721854459958,-0.016816789693558445,1.3351406552769434
1447164988791350,51.760713719,-1.2614194448,111.0354,5735854.651565199,619985.5390928502,-111.0354,30U,2.671,-0.646,0.043,0.04790835779052883,-0.017232989966993163,1.3356107424322086
1447164988896066,51.760716128,-1.2614203911,111.031685,5735854.917904479,619985.4674032745,-111.031685,30U,2.697,-0.656,0.028,0.04977008887101172,-0.017837543900884417,1.3366397442365479
1447164989002681,51.7607185624,-1.2614213378,111.029518,5735855.187067747,619985.3956187628,-111.029518,30U,2.724,-0.651,0.016,0.05143789999972114,-0.018928999999945278,1.3371560000000855
1447164989109394,51.760721016,-1.2614222838,111.028542,5735855.458367327,619985.32383166,-111.028542,30U,2.743,-0.657,0.008,0.052316260245932805,-0.01940805662912916,1.3375792024192874
1447164989214190,51.7607234864,-1.2614232361,111.027054,5735855.731524811,619985.2515652694,-111.027054,30U,2.76,-0.659,0.023,0.05249753269895229,-0.018307073962760226,1.3384462186327357
1447164989305567,51.760725971,-1.2614241818,111.024887,5735856.006272285,619985.1797166957,-111.024887,30U,2.771,-0.647,0.021,0.050444064291682675,-0.016225653985346873,1.3393378326736674
1447164989396943,51.7607284618,-1.2614251057,111.022568,5735856.281745104,619985.1093560775,-111.022568,30U,2.773,-0.634,0.027,0.04625602115239332,-0.012662101485753419,1.340092696575818
1447164989494961,51.7607309551,-1.2614260224,111.019714,5735856.557507788,619985.0394856997,-111.019714,30U,2.779,-0.636,0.03,0.04085455908956658,-0.007684042261777325,1.3414028906134585
1447164989593421,51.7607334529,-1.261426954,111.016739,5735856.833746385,619984.9685751707,-111.016739,30U,2.784,-0.657,0.034,0.03984857410097175,-0.003834146341439346,1.3431997500274488
1447164989699348,51.7607359545,-1.2614279198,111.012482,5735857.110351303,619984.8952944826,-111.012482,30U,2.791,-0.673,0.053,0.040374060816675224,-0.0010504870831935743,1.3451853993626504
1447164989806047,51.7607384645,-1.2614288862,111.00663,5735857.3878893675,619984.8219501267,-111.00663,30U,2.803,-0.66,0.067,0.04193557109649561,0.0019104422547389721,1.3471600195521558
1447164989912689,51.7607409898,-1.2614298451,111.000374,5735857.667141231,619984.7490827779,-111.000374,30U,2.825,-0.664,0.053,0.045492840335732726,0.004290123586570198,1.3493825940102089
1447164990016970,51.7607435271,-1.2614308118,110.996643,5735857.947714739,619984.6756453558,-110.996643,30U,2.83,-0.669,0.024,0.05016299999974258,0.003604900000581012,1.351118499999188
1447164990108499,51.7607460659,-1.261431762,110.99559,5735858.228482203,619984.6033426041,-110.99559,30U,2.827,-0.64,-0.011,0.05225579219000542,0.0027807301105593927,1.352140681339554
1447164990200027,51.7607485995,-1.2614326714,110.998238,5735858.508738516,619984.5338691939,-110.998238,30U,2.814,-0.617,-0.044,0.05135463214054295,0.002448950597974883,1.3532089215698144
1447164990298159,51.7607511162,-1.2614335423,111.006454,5735858.787178785,619984.467097423,-111.006454,30U,2.788,-0.59,-0.128,0.04704962916831391,0.0006664381045951463,1.3542554514557776
1447164990396504,51.7607536076,-1.2614343822,111.021271,5735859.062856535,619984.4025319971,-111.021271,30U,2.759,-0.576,-0.152,0.04186462935463359,-0.005001742539074201,1.3549387918349944
1447164990502778,51.7607560706,-1.2614352326,111.033096,5735859.335358748,619984.3373172831,-111.033096,30U,2.727,-0.602,-0.08,0.0396242662564984,-0.009766792852032455,1.3559710511811913
1447164990609051,51.7607585035,-1.2614361097,111.036972,5735859.604469726,619984.270339848,-111.036972,30U,2.696,-0.601,-0.011,0.03991728374474405,-0.010653475898004456,1.3570241572373927
1447164990707393,51.7607609106,-1.2614369631,111.037659,5735859.870750569,619984.2050663217,-111.037659,30U,2.669,-0.574,-0.008,0.040542917252214095,-0.010366576935468363,1.3569899544197217
1447164990805738,51.760763292,-1.2614377825,111.038879,5735860.134229347,619984.1422072246,-111.038879,30U,2.645,-0.559,0.003,0.03921800890041015,-0.01045937280359659,1.356501051941423
1447164990904213,51.7607656545,-1.261438619,111.034821,5735860.395578193,619984.0782181965,-111.034821,30U,2.621,-0.591,0.063,0.03949014056407727,-0.00834329108989346,1.3571176493138688
1447164991002687,51.7607679922,-1.2614394761,111.029663,5735860.654135234,619984.0128733478,-111.029663,30U,2.597,-0.584,0.034,0.040822299999705026,-0.0065871999998503225,1.357562099999703
1447164991101199,51.7607703091,-1.2614403106,111.028679,5735860.91041636,619983.9491432424,-111.028679,30U,2.572,-0.566,-0.014,0.043623587392319224,-0.007126580136792935,1.3568832439647465
1447164991199711,51.7607726026,-1.2614411305,111.031593,5735861.164119279,619983.8864827034,-111.031593,30U,2.543,-0.563,-0.039,0.04470580568879675,-0.00847564689977067,1.3562742981331946
1447164991298062,51.7607748763,-1.2614419367,111.034134,5735861.415642852,619983.8248200798,-111.034134,30U,2.525,-0.55,-0.008,0.04431952327693173,-0.009148983358893128,1.3562449711231728
1447164991396407,51.760777134,-1.2614427264,111.033203,5735861.665414268,619983.76433852,-111.033203,30U,2.507,-0.542,0.019,0.04341948690534828,-0.008932867451138131,1.3560623345661882
1447164991502561,51.7607793734,-1.2614435166,111.031784,5735861.913149787,619983.7038709783,-111.031784,30U,2.484,-0.553,0.009,0.04378418186329415,-0.009616683331347145,1.3555562031487185
1447164991608729,51.7607815921,-1.2614443225,111.031784,5735862.158557505,619983.642374888,-111.031784,30U,2.464,-0.558,-0.008,0.04575912171334303,-0.011222602437116374,1.3552001758990089
1447164991707299,51.7607837939,-1.261445122,111.032516,5735862.402096367,619983.5813652611,-111.032516,30U,2.446,-0.542,-0.01,0.04715962248987367,-0.012743610005921712,1.3546914814288806
1447164991805639,51.7607859803,-1.2614458958,111.033997,5735862.643964931,619983.5221699859,-111.033997,30U,2.427,-0.533,-0.022,0.048560032151490705,-0.01427517455650023,1.3535961296990786
1447164991896839,51.7607881493,-1.2614466685,111.036095,5735862.883900314,619983.4630967551,-111.036095,30U,2.407,-0.535,-0.017,0.04860275494051291,-0.01661684595254722,1.3526375265494792
1447164991988038,51.7607903025,-1.2614474424,111.036621,5735863.122076664,619983.4039826085,-111.036621,30U,2.392,-0.535,0.008,0.04947420000024195,-0.018375800000410183,1.351881700000508
1447164992092459,51.7607924396,-1.261448218,111.034767,5735863.358459796,619983.3447938344,-111.034767,30U,2.374,-0.535,0.02,0.050729572912719324,-0.018695419278751943,1.3509686849242741
1447164992199328,51.7607945626,-1.261448994,111.03344,5735863.593274259,619983.2856148445,-111.03344,30U,2.357,-0.534,0.008,0.051765036096991984,-0.019525076785883794,1.3498066434045355
1447164992306025,51.7607966699,-1.2614497552,111.032852,5735863.826367133,619983.227498808,-111.032852,30U,2.341,-0.517,0.005,0.05119627714690981,-0.020448837627429117,1.3483502083161367
1447164992411930,51.7607987617,-1.2614504979,111.032372,5735864.057766743,619983.1707005249,-111.032372,30U,2.319,-0.514,0.009,0.0508444705379187,-0.020564570326353053,1.346714526700555
1447164992510235,51.7608008295,-1.2614512484,111.030991,5735864.286484569,619983.1134276091,-111.030991,30U,2.292,-0.521,0.02,0.04999419672693274,-0.019398522356192438,1.3449568995654355
