timestamp,latitude,longitude,altitude,northing,easting,down,utm_zone,velocity_north,velocity_east,velocity_down,roll,pitch,yaw
1438175394808607,51.7605979442,-1.261256022,111.025345,5735842.045546257,619997.1236383265,-111.025345,30U,-0.007,0.014,-0.008,-0.004805699999894936,0.0026138000001519382,0.011640700000385066
1438175394900036,51.7605979775,-1.2612560819,111.021835,5735842.049150871,619997.1194164096,-111.021835,30U,-0.009,0.014,-0.011,-0.004822587550919162,0.002604291554597487,0.011644624099191482
1438175394991464,51.7605979694,-1.2612560617,111.022942,5735842.048283335,619997.1208318631,-111.022942,30U,-0.009,0.015,-0.01,-0.004801300796286188,0.0025769731078758985,0.011653312849117404
1438175395095273,51.7605979617,-1.2612560402,111.023857,5735842.047462421,619997.1223359675,-111.023857,30U,-0.009,0.015,-0.01,-0.004797612051638743,0.002626072312457934,0.011646899203939296
1438175395201940,51.7605979541,-1.2612560203,111.024933,5735842.046649996,619997.1237293924,-111.024933,30U,-0.008,0.013,-0.011,-0.004789463446209728,0.0026132762931659263,0.011663099999318789
1438175395308606,51.760597947,-1.2612560016,111.025925,5735842.045891198,619997.1250386806,-111.025925,30U,-0.008,0.013,-0.009,-0.004819599203409885,0.002602022909313233,0.011652250598101408
1438175395415273,51.7605979397,-1.2612559821,111.026932,5735842.045111478,619997.126403707,-111.026932,30U,-0.009,0.014,-0.011,-0.004804725299830209,0.002614949398948144,0.011648586349150019
1438175395521939,51.7605979313,-1.2612559623,111.027992,5735842.044209922,619997.1277923525,-111.027992,30U,-0.009,0.013,-0.009,-0.004815063047305391,0.002634999203833645,0.011668950995724615
1438175395628605,51.7605979243,-1.2612559433,111.028893,5735842.043462739,619997.1291220791,-111.028893,30U,-0.008,0.013,-0.01,-0.004827298407500465,0.002637504777563857,0.011644300398211101
1438175395735272,51.7605979161,-1.2612559247,111.029938,5735842.042581451,619997.1304273832,-111.029938,30U,-0.01,0.013,-0.01,-0.004841985957039917,0.002610160046183734,0.011664123308548515
1438175395833605,51.7605978885,-1.2612558726,111.03405,5735842.039597877,619997.1340959194,-111.03405,30U,-0.009,0.013,-0.008,-0.004810599999552605,0.0025109000003595656,0.011665700000597523
1438175395913605,51.7605978905,-1.2612558885,111.031998,5735842.039794129,619997.1329933777,-111.031998,30U,-0.009,0.013,-0.01,-0.004828385546911592,0.002450937749576058,0.01166179759623371
1438175395993605,51.7605978834,-1.2612558721,111.032997,5735842.0390315475,619997.1341439461,-111.032997,30U,-0.008,0.014,-0.011,-0.004870359861956052,0.002389275895421629,0.011676000398026713
1438175396095271,51.7605978769,-1.2612558545,111.033806,5735842.038337665,619997.1353757347,-111.033806,30U,-0.009,0.014,-0.008,-0.004915112051764632,0.0023791747011466156,0.01165668794762629
1438175396201937,51.7605978692,-1.2612558384,111.034584,5735842.037507865,619997.1365071912,-111.034584,30U,-0.01,0.012,-0.01,-0.004904951394122003,0.002383265834943765,0.01167462410468242
1438175396308604,51.7605978619,-1.2612558227,111.035545,5735842.036721891,619997.1376099843,-111.035545,30U,-0.008,0.014,-0.01,-0.004876688345538638,0.0023332494022439416,0.011666264640790482
1438175396414319,51.7605978554,-1.2612558047,111.036301,5735842.036028667,619997.1388693767,-111.036301,30U,-0.009,0.014,-0.008,-0.004888446995228466,0.002354058243839818,0.01163860924603949
1438175396505747,51.7605978483,-1.2612557887,111.037048,5735842.035265427,619997.139992341,-111.037048,30U,-0.008,0.011,-0.01,-0.004906538545929218,0.0024123642417403653,0.01170651205202386
1438175396597175,51.7605978416,-1.2612557756,111.038017,5735842.034541899,619997.1409141204,-111.038017,30U,-0.009,0.011,-0.01,-0.004916162251282142,0.0023418778859507932,0.011659177488761994
1438175396701937,51.7605978341,-1.2612557607,111.038757,5735842.033732367,619997.141962237,-111.038757,30U,-0.01,0.013,-0.008,-0.004894612451096282,0.002374007673094708,0.011682996813878048
1438175396808603,51.7605978381,-1.2612557407,111.039413,5735842.034210098,619997.1433318057,-111.039413,30U,-0.007,0.012,-0.01,-0.004910500000017614,0.002410800000870241,0.011693400000728205
1438175396915269,51.7605978237,-1.2612557495,111.039177,5735842.032594249,619997.1427627096,-111.039177,30U,-0.008,0.011,-0.009,-0.004939962250367391,0.0023582759017904326,0.011661148597296686
1438175397020031,51.7605978167,-1.2612557355,111.039932,5735842.031838838,619997.1437473926,-111.039932,30U,-0.008,0.012,-0.009,-0.004932576294480302,0.0023746883462669984,0.011696349005025485
1438175397111459,51.7605978103,-1.2612557214,111.040749,5735842.031150318,619997.1447373849,-111.040749,30U,-0.007,0.011,-0.01,-0.004919311654284134,0.0023978739056797413,0.011676489540512218
1438175397202888,51.7605978041,-1.2612557091,111.04155,5735842.030481077,619997.1456026316,-111.04155,30U,-0.008,0.01,-0.009,-0.004929636554390693,0.0023747883466518197,0.01168106026111722
1438175397308602,51.7605977979,-1.2612556979,111.042328,5735842.029810025,619997.1463919689,-111.042328,30U,-0.007,0.01,-0.01,-0.0049448007969820984,0.002366475099078476,0.011695926492229504
1438175397414316,51.760597792,-1.2612556865,111.043243,5735842.029172664,619997.1471943121,-111.043243,30U,-0.008,0.01,-0.01,-0.004931837350000276,0.002379637750959803,0.011677125301126867
1438175397505745,51.7605977857,-1.261255676,111.044037,5735842.028489339,619997.1479356077,-111.044037,30U,-0.007,0.009,-0.008,-0.00493380079653955,0.002388398806385978,0.011699199204488477
1438175397597173,51.7605977804,-1.2612556665,111.044815,5735842.0279155765,619997.1486052438,-111.044815,30U,-0.006,0.009,-0.01,-0.004959961056732148,0.0023970000001246458,0.011683264639887756
1438175397701935,51.7605977752,-1.2612556569,111.045723,5735842.0273531,619997.1492815154,-111.045723,30U,-0.007,0.009,-0.01,-0.004956376691500621,0.0023904630474348844,0.01168153695242384
1438175397808601,51.7605977819,-1.2612556602,111.045044,5735842.028092753,619997.1490360214,-111.045044,30U,-0.006,0.008,-0.008,-0.00494320000019079,0.00239430000020642,0.01168859999971003
1438175397915267,51.7605977716,-1.2612556721,111.045715,5735842.026927748,619997.1482421273,-111.045715,30U,-0.006,0.008,-0.01,-0.004930800401022447,0.002384563450590708,0.011675087550685349
1438175398020029,51.7605977666,-1.2612556641,111.046532,5735842.026384877,619997.1488074549,-111.046532,30U,-0.006,0.008,-0.009,-0.004951911654072488,0.002379212450873007,0.011694237748297188
1438175398111457,51.7605977621,-1.261255656,111.047226,5735842.025897776,619997.149378357,-111.047226,30U,-0.006,0.008,-0.009,-0.004970885957402312,0.0023894614553370427,0.011681912449540432
1438175398202886,51.760597757,-1.2612556485,111.047981,5735842.025342965,619997.1499094451,-111.047981,30U,-0.006,0.007,-0.01,-0.004986639739053784,0.0023921377484480383,0.011685898805986595
1438175398308600,51.7605977514,-1.261255642,111.048729,5735842.024730905,619997.1503728498,-111.048729,30U,-0.007,0.007,-0.008,-0.004948399999257597,0.0023871486060988234,0.01169097509960668
1438175398414314,51.7605977461,-1.2612556351,111.049347,5735842.024152863,619997.1508630632,-111.049347,30U,-0.006,0.007,-0.008,-0.004953300400340995,0.0023955618488210022,0.011677312449291901
1438175398505742,51.7605977411,-1.261255628,111.050018,5735842.023608513,619997.1513662824,-111.050018,30U,-0.006,0.007,-0.009,-0.004982285957638819,0.0023949999994095175,0.011679511653161204
1438175398597171,51.760597736,-1.2612556208,111.050644,5735842.023053208,619997.1518766684,-111.050644,30U,-0.006,0.007,-0.007,-0.004977326890803274,0.002399750199202817,0.011675775498389959
1438175398701932,51.7605977303,-1.2612556142,111.051247,5735842.022430189,619997.1523472393,-111.051247,30U,-0.007,0.006,-0.008,-0.004972950996066687,0.0024033498011587157,0.011671212052317283
1438175398808599,51.7605977449,-1.2612556362,111.049049,5735842.024017605,619997.1507903351,-111.049049,30U,-0.005,0.006,-0.008,-0.004961400000415272,0.0024071000005944513,0.011677699999652303
1438175398915265,51.7605977266,-1.2612556409,111.051445,5735842.0219747955,619997.1505145159,-111.051445,30U,-0.005,0.006,-0.008,-0.004982312048565808,0.0023934000002336776,0.01167448835122787
1438175399020027,51.7605977216,-1.2612556323,111.052101,5735842.021432915,619997.1511212485,-111.052101,30U,-0.006,0.006,-0.008,-0.004985511654218404,0.002395287151450031,0.01168569960108709
1438175399111455,51.7605977166,-1.2612556222,111.052834,5735842.020893502,619997.1518314944,-111.052834,30U,-0.006,0.006,-0.008,-0.00497147510027264,0.002394137351228097,0.011687337749669721
1438175399202884,51.7605977119,-1.2612556112,111.053543,5735842.020388929,619997.1526030521,-111.053543,30U,-0.006,0.006,-0.008,-0.004978399601577477,0.00240453735110704,0.011687512848081597
1438175399308598,51.7605977072,-1.2612555998,111.054276,5735842.019885017,619997.1534022139,-111.054276,30U,-0.005,0.005,-0.008,-0.004985049402020684,0.0023976875498941887,0.011697837748188156
1438175399415264,51.7605977027,-1.261255588,111.054977,5735842.0194040015,619997.154228448,-111.054977,30U,-0.006,0.006,-0.007,-0.004997087550482256,0.0024014240991098446,0.011686113650781527
1438175399521931,51.7605976978,-1.2612555762,111.055618,5735842.018878507,619997.1550557439,-111.055618,30U,-0.006,0.005,-0.007,-0.004997237748281695,0.0023993871515197805,0.01169886145535295
1438175399623597,51.7605976931,-1.2612555654,111.056236,5735842.018373607,619997.1558135,-111.056236,30U,-0.005,0.005,-0.007,-0.004996675099509413,0.002410599602165527,0.011708912450468019
1438175399703597,51.7605976888,-1.2612555552,111.056816,5735842.0179122025,619997.1565287902,-111.056816,30U,-0.006,0.005,-0.007,-0.005002612449570639,0.002412262251680196,0.01170741244993167
1438175399783596,51.7605977108,-1.2612555784,111.054382,5735842.020320569,619997.1548694557,-111.054382,30U,-0.005,0.005,-0.007,-0.0050068000005916566,0.0024186999998552735,0.011715600000637618
1438175399881929,51.7605977031,-1.2612555716,111.055283,5735842.019475468,619997.1553591308,-111.055283,30U,-0.005,0.005,-0.007,-0.005007474699501918,0.0024118999998672982,0.01172218835152852
1438175399988596,51.7605977007,-1.2612555669,111.055534,5735842.019216308,619997.1556898359,-111.055534,30U,-0.005,0.004,-0.007,-0.005013712848333077,0.002412724104197517,0.011722062251490065
1438175400095263,51.7605976979,-1.2612555639,111.055756,5735842.018909865,619997.1559042857,-111.055756,30U,-0.005,0.004,-0.006,-0.005013424502487355,0.0024118754971899294,0.011722475100397976
1438175400201929,51.7605976947,-1.2612555623,111.056,5735842.018556639,619997.1560231848,-111.056,30U,-0.005,0.004,-0.007,-0.00501469920370655,0.002418398406960529,0.011718411654504081
1438175400308596,51.760597691,-1.2612555618,111.056282,5735842.018145996,619997.1560674999,-111.056282,30U,-0.005,0.004,-0.007,-0.005017012450879839,0.0024232501988789286,0.01172427510034346
1438175400415262,51.7605976872,-1.2612555623,111.056572,5735842.01772259,619997.1560430712,-111.056572,30U,-0.005,0.003,-0.006,-0.0050267000003768,0.0024231751008518742,0.011716936949024584
1438175400521929,51.7605976835,-1.2612555639,111.05687,5735842.017308496,619997.1559424674,-111.05687,30U,-0.004,0.003,-0.007,-0.005027849800598734,0.002422313644730333,0.011721761454465457
1438175400625738,51.7605976798,-1.2612555663,111.057182,5735842.016893081,619997.1557866562,-111.057182,30U,-0.004,0.003,-0.006,-0.005037050199030867,0.002422824104667322,0.011726963047017872
1438175400717166,51.7605976762,-1.2612555684,111.05748,5735842.016489284,619997.1556512836,-111.05748,30U,-0.004,0.003,-0.006,-0.005026549800832033,0.002431162251107776,0.011720774701156915
1438175400808594,51.760597704,-1.2612556145,111.053604,5735842.019504969,619997.1523962693,-111.053604,30U,-0.003,0.003,-0.007,-0.005032100000213252,0.002432500000600869,0.011728700000434784
1438175400915261,51.7605977018,-1.2612556191,111.053955,5735842.019252746,619997.1520846635,-111.053955,30U,0.0,0.003,-0.003,-0.005041638151271574,0.0024403004006268068,0.011852763450839139
1438175401020023,51.7605976994,-1.2612556232,111.054176,5735842.018979106,619997.1518080903,-111.054176,30U,-0.001,0.002,-0.003,-0.005047287947866557,0.0024407754984478217,0.011851137350264336
1438175401111451,51.7605976969,-1.2612556274,111.054466,5735842.018694179,619997.1515248823,-111.054466,30U,-0.0,0.002,-0.004,-0.005037411255293227,0.002436861852418295,0.011854188346367114
1438175401202879,51.7605976944,-1.2612556318,111.054794,5735842.018408924,619997.1512278726,-111.054794,30U,-0.001,0.002,-0.004,-0.005044674701284131,0.002441199203303682,0.01184517509959067
1438175401294307,51.7605976914,-1.2612556362,111.055092,5735842.018068066,619997.1509321883,-111.055092,30U,-0.001,0.002,-0.003,-0.005060075099140635,0.0024429116540432274,0.011853012449982204
1438175401385736,51.7605976878,-1.261255641,111.055359,5735842.017659825,619997.1506104916,-111.055359,30U,-0.002,0.002,-0.004,-0.005059799598918208,0.0024393746989355004,0.011847937749847725
1438175401488593,51.7605976838,-1.2612556453,111.055656,5735842.017207925,619997.1503243605,-111.055656,30U,-0.002,0.003,-0.003,-0.005060175895395596,0.0024419731084739547,0.01184858675402074
1438175401595260,51.7605976795,-1.2612556496,111.055878,5735842.016722663,619997.1500390238,-111.055878,30U,-0.002,0.003,-0.003,-0.005061487550471043,0.0024516000007980933,0.011846638146270766
1438175401701926,51.7605976751,-1.2612556543,111.056145,5735842.016225622,619997.1497263488,-111.056145,30U,-0.002,0.002,-0.004,-0.005064874702223741,0.0024463618523244963,0.01184421205134403
1438175401808592,51.7605976957,-1.2612556746,111.050377,5735842.018483072,619997.1482708514,-111.050377,30U,-0.002,0.003,-0.002,-0.005075800000828975,0.0024520999992315466,0.011853299999957784
1438175401915259,51.7605976915,-1.2612556793,111.050507,5735842.018008272,619997.1479576463,-111.050507,30U,-0.002,0.003,-0.002,-0.005068162249781359,0.0024384120486239287,0.011850700000424383
1438175402021925,51.7605976871,-1.2612556842,111.050682,5735842.017510902,619997.1476311698,-111.050682,30U,-0.002,0.003,-0.003,-0.005066175099925513,0.002436612450104173,0.01184847470213743
1438175402128592,51.7605976828,-1.2612556895,111.050903,5735842.017023993,619997.1472768248,-111.050903,30U,-0.001,0.002,-0.003,-0.005074136953379236,0.0024364365540768275,0.011846363047474065
1438175402231448,51.7605976789,-1.2612556953,111.051102,5735842.0165807465,619997.1468869145,-111.051102,30U,-0.001,0.002,-0.003,-0.005076150199398058,0.0024391128489331527,0.011846448607004656
1438175402322877,51.7605976747,-1.2612557011,111.051361,5735842.016104137,619997.1464978001,-111.051361,30U,-0.001,0.002,-0.003,-0.005080662648695321,0.0024382237066536876,0.01184763655488805
1438175402414306,51.7605976704,-1.2612557069,111.051598,5735842.015616407,619997.1461089507,-111.051598,30U,-0.002,0.002,-0.003,-0.005076636147931032,0.0024495618489308456,0.011858436549324964
1438175402505734,51.7605976656,-1.2612557129,111.051826,5735842.015072743,619997.1457076258,-111.051826,30U,-0.002,0.002,-0.003,-0.005076837749167601,0.0024491373499501753,0.011860074701398254
1438175402597162,51.7605976606,-1.2612557189,111.05204,5735842.014506839,619997.1453068308,-111.05204,30U,-0.002,0.003,-0.003,-0.005085474701211983,0.0024522369517272916,0.011860849402438665
1438175402701923,51.760597656,-1.2612557243,111.052246,5735842.013986405,619997.1449463798,-111.052246,30U,-0.002,0.003,-0.002,-0.005084162252011728,0.0024537996026024675,0.01186632609553311
1438175402808590,51.7605976848,-1.2612557378,111.0485,5735842.017166936,619997.1439383999,-111.0485,30U,-0.001,0.003,-0.002,-0.005095600000229297,0.0024603999997558678,0.011864800000579117
1438175402900018,51.7605976812,-1.2612557436,111.048592,5735842.01675705,619997.1435476944,-111.048592,30U,-0.0,0.003,-0.002,-0.005081037349941774,0.0024419614479292227,0.011858800399859457
1438175402991446,51.7605976777,-1.2612557492,111.048676,5735842.016358614,619997.1431705256,-111.048676,30U,-0.0,0.003,-0.002,-0.005087387948591312,0.002446775099167479,0.011865199204502937
1438175403095256,51.7605976741,-1.261255755,111.048798,5735842.015948728,619997.14277982,-111.048798,30U,-0.0,0.003,-0.002,-0.0050932377494466,0.002443761852791093,0.011875900397596227
1438175403201922,51.7605976703,-1.2612557606,111.048958,5735842.01551693,619997.1424034471,-111.048958,30U,-0.001,0.003,-0.003,-0.005089987152254576,0.0024512501984187496,0.011877724502284007
1438175403308589,51.7605976662,-1.2612557661,111.049118,5735842.015051934,619997.1420347696,-111.049118,30U,-0.001,0.003,-0.003,-0.005080538147378461,0.002444336952742259,0.011879437350958621
1438175403415256,51.7605976622,-1.2612557713,111.049248,5735842.014598553,619997.14168653,-111.049248,30U,-0.001,0.004,-0.002,-0.005081861047610277,0.002461223697424371,0.01187223734943136
1438175403521922,51.7605976581,-1.2612557762,111.049377,5735842.014134545,619997.1413592582,-111.049377,30U,-0.001,0.003,-0.003,-0.005110811654689831,0.0024886000000653337,0.011872286752721164
1438175403628588,51.7605976537,-1.2612557824,111.049599,5735842.013635036,619997.14094307,-111.049599,30U,-0.001,0.003,-0.003,-0.0051173389434915235,0.0024676132465868256,0.011875601194057226
1438175403735255,51.7605976491,-1.2612557882,111.049751,5735842.013113944,619997.1405550165,-111.049751,30U,-0.001,0.003,-0.002,-0.005097536554735456,0.002463298406958131,0.011868112848429571
1438175403833588,51.7605976958,-1.2612557905,111.048546,5735842.018303496,619997.1402724731,-111.048546,30U,0.001,0.003,-0.003,-0.005109700000384029,0.0024762999998560846,0.011886699999334059
1438175403913588,51.760597693,-1.261255797,111.048775,5735842.017981423,619997.1398313404,-111.048775,30U,0.001,0.003,-0.004,-0.005139799599598073,0.002462749399679282,0.011867050600904233
1438175403993587,51.7605976892,-1.2612558034,111.048965,5735842.017548308,619997.1393997595,-111.048965,30U,-0.001,0.003,-0.002,-0.005101451392824862,0.0024693501982584105,0.011883598805816664
1438175404095254,51.7605976852,-1.2612558098,111.049118,5735842.0170929525,619997.1389687093,-111.049118,30U,0.001,0.003,-0.004,-0.005087025696778414,0.0024665252990882535,0.01189140159345302
1438175404201921,51.7605976819,-1.2612558156,111.049377,5735842.016716429,619997.1385772086,-111.049377,30U,-0.0,0.003,-0.004,-0.005112335360288078,0.002486012052030415,0.011874062649669679
1438175404308587,51.7605976776,-1.2612558219,111.049629,5735842.016227877,619997.1381538548,-111.049629,30U,-0.0,0.003,-0.003,-0.005117250198735048,0.002466501194345954,0.011892473904546823
1438175404414300,51.7605976738,-1.2612558282,111.049805,5735842.015794925,619997.1377291756,-111.049805,30U,0.0,0.004,-0.003,-0.005107213251775129,0.0024670345460214124,0.011879714853073703
1438175404505729,51.7605976696,-1.2612558333,111.050041,5735842.0153194675,619997.1373883673,-111.050041,30U,-0.001,0.003,-0.004,-0.005118086754244151,0.0025060377486829585,0.011872297610414442
1438175404597158,51.7605976646,-1.2612558406,111.050308,5735842.014751424,619997.1368978607,-111.050308,30U,-0.001,0.002,-0.003,-0.005104038147054572,0.002475665038602233,0.011904912052802355
1438175404701920,51.7605976597,-1.2612558471,111.050446,5735842.01419582,619997.1364622957,-111.050446,30U,-0.001,0.004,-0.002,-0.0051085381469182815,0.0024621217147030826,0.011878301193975453
1438175404808586,51.7605977252,-1.2612557919,111.049759,5735842.021570659,619997.1400979079,-111.049759,30U,0.001,0.005,-0.003,-0.005126799999866125,0.002531999999526589,0.011889600000021929
1438175404915252,51.7605977224,-1.261255797,111.049911,5735842.021250891,619997.1397533873,-111.049911,30U,0.002,0.004,-0.003,-0.005121967055758318,0.002485827703373502,0.011873226502567624
1438175405020014,51.7605977186,-1.2612558024,111.049957,5735842.020819421,619997.139390816,-111.049957,30U,-0.0,0.004,-0.001,-0.005099159464848386,0.002476198805666054,0.011879710858015044
1438175405111442,51.760597715,-1.2612558064,111.050026,5735842.020412496,619997.139124326,-111.050026,30U,0.002,0.005,-0.002,-0.00509939920327444,0.002485986753482907,0.011902175896643346
1438175405202871,51.7605977123,-1.2612558105,111.050095,5735842.020105492,619997.1388485492,-111.050095,30U,0.001,0.004,-0.002,-0.005141812849107553,0.002514625299182863,0.01187297430249071
1438175405308585,51.7605977081,-1.2612558163,111.050232,5735842.019628883,619997.1384594342,-111.050232,30U,0.0,0.004,-0.003,-0.005115826095586554,0.002461790735699722,0.011902909662731482
1438175405414299,51.7605977039,-1.2612558208,111.050385,5735842.019154412,619997.1381600307,-111.050385,30U,0.001,0.006,-0.002,-0.005095412450638536,0.00247152169502584,0.011896802003441845
1438175405505727,51.7605977003,-1.2612558239,111.050507,5735842.01874897,619997.1379556492,-111.050507,30U,0.002,0.006,-0.003,-0.005096299203562254,0.0025083754985336156,0.011892698805928904
1438175405597156,51.760597697,-1.2612558289,111.050652,5735842.018373761,619997.1376193558,-111.050652,30U,0.003,0.005,-0.002,-0.005116437749713574,0.002475462648476843,0.011910463843923854
1438175405701917,51.7605976942,-1.261255833,111.050743,5735842.018055637,619997.1373438442,-111.050743,30U,0.003,0.007,-0.003,-0.005116736953252572,0.0024828112560632684,0.011879513246601145
1438175405808583,51.7605977349,-1.2612557805,111.048622,5735842.022668119,619997.1408588886,-111.048622,30U,0.002,0.006,-0.003,-0.005104200000162756,0.0025155999992475904,0.011896799999803864
1438175405915250,51.7605977326,-1.2612557832,111.048691,5735842.0224079,619997.1406786632,-111.048691,30U,0.004,0.006,-0.002,-0.005057971094255381,0.0024914273025538705,0.011864790354144339
1438175406020012,51.7605977317,-1.2612557861,111.048866,5735842.022303043,619997.1404809239,-111.048866,30U,0.006,0.005,-0.002,-0.005126056569889921,0.0024780197251279517,0.01182740199119326
1438175406111440,51.7605977305,-1.2612557994,111.048431,5735842.022147713,619997.1395662896,-111.048431,30U,0.004,-0.01,0.008,-0.004998654578643196,0.00282533318467267,0.011899731378021026
1438175406202869,51.7605977306,-1.261255844,111.04731,5735842.0220854515,619997.1364882343,-111.04731,30U,0.008,-0.035,0.01,-0.004863647702644001,0.0033534636605498823,0.011886092725983462
1438175406308583,51.760597732,-1.2612559257,111.046494,5735842.022106714,619997.1308465082,-111.046494,30U,0.006,-0.061,0.004,-0.004695881469569098,0.003762004992894533,0.01188822859185421
1438175406414297,51.7605977308,-1.2612560447,111.04641,5735842.02177747,619997.1226376492,-111.04641,30U,0.005,-0.085,-0.005,-0.004579444158536848,0.00402461084847181,0.012209155474362224
1438175406505725,51.7605977307,-1.2612561982,111.046936,5735842.021513787,619997.1120450724,-111.046936,30U,0.008,-0.108,-0.007,-0.004465287947458393,0.004029113246417911,0.012563435068295756
1438175406597153,51.7605977312,-1.2612563845,111.047363,5735842.021262861,619997.0991874179,-111.047363,30U,0.007,-0.13,-0.005,-0.004396620413244958,0.004105756677004232,0.01293090101044587
1438175406701915,51.7605977293,-1.2612566005,111.047798,5735842.020696173,619997.0842865667,-111.047798,30U,0.004,-0.149,-0.007,-0.004229297504272037,0.0041890843643238515,0.013539601118837568
1438175406808581,51.7605977549,-1.2612568286,111.048454,5735842.023167751,619997.0684777956,-111.048454,30U,0.006,-0.17,-0.008,-0.004055200000323734,0.00417180000047688,0.014290700000216325
1438175406915248,51.7605977561,-1.2612571009,111.049057,5735842.02285317,619997.0496835324,-111.049057,30U,0.009,-0.19,-0.008,-0.0039637658537858755,0.0041740457941652365,0.01507829409150007
1438175407020010,51.760597757,-1.2612574032,111.04969,5735842.0224558655,619997.0288198034,-111.04969,30U,0.007,-0.212,-0.008,-0.003890115237006388,0.004244059464178821,0.016098790475298278
1438175407111438,51.7605977568,-1.2612577501,111.049988,5735842.021862852,619997.0048812004,-111.049988,30U,0.007,-0.255,-0.001,-0.0037134388363006666,0.0045160934452583715,0.01743188779501552
1438175407202866,51.7605977579,-1.2612581774,111.049606,5735842.021282121,619996.9753908475,-111.049606,30U,0.011,-0.321,0.004,-0.003536093920386225,0.005203779402842795,0.019069622863766518
1438175407308580,51.7605977631,-1.26125871,111.049171,5735842.020984081,619996.9386230031,-111.049171,30U,0.015,-0.398,0.001,-0.003459426891203089,0.0058547496176992635,0.021082795789944493
1438175407415247,51.7605977699,-1.2612593557,111.049133,5735842.020677881,619996.8940460272,-111.049133,30U,0.015,-0.476,-0.004,-0.0034181188590912365,0.0063034558752715145,0.02376889439280685
1438175407521913,51.7605977762,-1.2612601157,111.04969,5735842.020128016,619996.8415826786,-111.04969,30U,0.015,-0.555,-0.01,-0.003170562541321594,0.006627259969703354,0.027279755100340634
1438175407623580,51.7605977844,-1.2612609889,111.050598,5735842.019603191,619996.7813025016,-111.050598,30U,0.02,-0.633,-0.01,-0.0028969183159834938,0.006909618238278898,0.03153723012508137
1438175407703580,51.7605977978,-1.2612619743,111.051422,5735842.019472031,619996.7132657566,-111.051422,30U,0.025,-0.71,-0.01,-0.002496961638637518,0.007228971622690434,0.03665475505609398
1438175407783579,51.7605978776,-1.2612630361,111.049706,5735842.026599269,619996.6397806876,-111.049706,30U,0.024,-0.787,-0.013,-0.002008500000837307,0.007481999999705354,0.04299299999989618
1438175407881912,51.7605978967,-1.2612642405,111.051353,5735842.026741657,619996.5566159141,-111.051353,30U,0.033,-0.861,-0.024,-0.0014866621821691248,0.007393465019587983,0.05043995807824079
1438175407988579,51.76059793,-1.2612655489,111.054146,5735842.028292061,619996.4662365819,-111.054146,30U,0.054,-0.931,-0.035,-0.0012480490047905293,0.006839761928896003,0.05851499000261421
1438175408095246,51.7605979786,-1.2612669583,111.057381,5735842.031377744,619996.3688467988,-111.057381,30U,0.065,-1.001,-0.032,-0.0013810334770283188,0.006131643904413305,0.06760633396942531
1438175408201911,51.7605980337,-1.2612684689,111.060318,5735842.035019761,619996.2644560973,-111.060318,30U,0.071,-1.07,-0.032,-0.0016225771983566944,0.0054742305518050306,0.0781912715661208
1438175408308578,51.7605980984,-1.2612700807,111.063179,5735842.039562854,619996.1530562572,-111.063179,30U,0.088,-1.14,-0.026,-0.0015173881311824906,0.004652624686590273,0.08993119638984039
1438175408415245,51.7605981792,-1.2612717932,111.065178,5735842.045730687,619996.0346645489,-111.065178,30U,0.106,-1.209,-0.02,-0.0007319187251903047,0.004518236549009529,0.10242523507966307
1438175408521911,51.7605982779,-1.2612736093,111.0672,5735842.053718658,619995.9090760746,-111.0672,30U,0.132,-1.282,-0.021,8.37984078548704e-05,0.00424888176177819,0.11586482073926961
1438175408625720,51.7605984064,-1.2612755241,111.068977,5735842.064858187,619995.7765974251,-111.068977,30U,0.168,-1.346,-0.02,-0.0007547542116976707,0.004044404777616993,0.12981123839674383
1438175408717149,51.7605985626,-1.2612775311,111.071365,5735842.078926437,619995.6376827258,-111.071365,30U,0.191,-1.408,-0.033,-0.0014796505208667721,0.0036910486827692523,0.1450752406344708
1438175408808577,51.7605989266,-1.2612796024,111.073524,5735842.115997579,619995.4937798006,-111.073524,30U,0.224,-1.467,-0.044,-0.0023205999993357483,0.0030443000004943383,0.1611481000008353
1438175408915244,51.7605991404,-1.2612817782,111.078125,5735842.136193589,619995.343063707,-111.078125,30U,0.26,-1.525,-0.053,-0.002337720461057994,0.002352399866891158,0.17704215277119806
1438175409020006,51.7605993809,-1.2612840341,111.083214,5735842.159227028,619995.1867492215,-111.083214,30U,0.288,-1.578,-0.049,-0.0025749773046776217,0.0011343689893451893,0.19387675213431108
1438175409111434,51.7605996529,-1.2612863644,111.087212,5735842.185641056,619995.0252169685,-111.087212,30U,0.332,-1.628,-0.039,-0.002327431853327902,0.00034415306271376727,0.21169682705042026
1438175409202862,51.7605999631,-1.2612887638,111.091301,5735842.216189482,619994.8588149288,-111.091301,30U,0.369,-1.674,-0.045,-0.0015894405045873655,-0.0006558598926369408,0.230004730557702
1438175409294290,51.7606003038,-1.2612912277,111.09523,5735842.250023585,619994.6878809604,-111.09523,30U,0.402,-1.717,-0.035,0.0002715171070575613,-0.0010537661257617465,0.24916620528987352
1438175409385719,51.7606006743,-1.2612937472,111.098595,5735842.287080164,619994.513031096,-111.098595,30U,0.439,-1.749,-0.037,0.0036280709620598916,-0.0005735665554998936,0.26952162890591325
1438175409488576,51.7606010876,-1.2612963119,111.101692,5735842.32882201,619994.3349485605,-111.101692,30U,0.496,-1.783,-0.026,0.009122664687381632,0.0005023904752605306,0.2903441069145699
1438175409595242,51.760601555,-1.2612989255,111.103447,5735842.376499673,619994.1533480601,-111.103447,30U,0.558,-1.812,-0.016,0.01227748341637244,0.0014308930482616192,0.311306175566167
1438175409701908,51.760602076,-1.26130157,111.105026,5735842.430087163,619993.9694730795,-111.105026,30U,0.613,-1.829,-0.025,0.013051935359902912,0.0016384316697980433,0.3336616036079051
1438175409808575,51.7606030554,-1.2613041022,111.113655,5735842.5348364245,619993.7921323898,-111.113655,30U,0.679,-1.854,-0.015,0.011954699999213812,0.001877199999965824,0.3573483000004399
1438175409915241,51.7606036948,-1.2613068051,111.113831,5735842.601494674,619993.6039133852,-111.113831,30U,0.754,-1.87,-0.001,0.009056948330400393,0.0036265496667613416,0.38070754769676296
1438175410021907,51.7606043925,-1.261309532,111.114311,5735842.674596773,619993.413883601,-111.114311,30U,0.803,-1.893,-0.013,0.006994141453446853,0.004882388561205054,0.4043916241598496
1438175410128574,51.7606051329,-1.2613122924,111.116356,5735842.752392275,619993.2214288168,-111.116356,30U,0.857,-1.912,-0.031,0.00502402150116963,0.004741021501208067,0.4292360072522374
1438175410231431,51.7606059278,-1.2613150757,111.119453,5735842.836210855,619993.027249239,-111.119453,30U,0.923,-1.927,-0.03,0.005007139847612947,0.00454864035213088,0.4543904585390189
1438175410322860,51.7606067834,-1.2613178802,111.122047,5735842.926744788,619992.8314457452,-111.122047,30U,0.99,-1.94,-0.028,0.005267586278865231,0.004881119218146663,0.47941602777265857
1438175410414288,51.7606076954,-1.2613207048,111.124702,5735843.023517693,619992.6341056463,-111.124702,30U,1.049,-1.956,-0.029,0.00654305774327412,0.0042742006668062445,0.505272486682721
1438175410505716,51.7606086602,-1.2613235553,111.127884,5735843.126119693,619992.4348382374,-111.127884,30U,1.111,-1.976,-0.035,0.009573236754284141,0.002862575252380516,0.5320799248335414
1438175410597145,51.7606096914,-1.2613264205,111.131729,5735843.236081616,619992.2343803595,-111.131729,30U,1.199,-1.974,-0.045,0.012012928438173061,0.0012874012401412186,0.5585392666399278
1438175410701907,51.7606108032,-1.2613292768,111.135948,5735843.355021423,619992.034322969,-111.135948,30U,1.281,-1.967,-0.044,0.013712555405945875,-0.0007266253614804919,0.5846689153544228
1438175410808573,51.7606119851,-1.2613320027,111.127312,5735843.481971346,619991.8430784662,-111.127312,30U,1.35,-1.959,-0.068,0.01343699999969828,-0.0032090000007420935,0.6111001999999911
1438175410900001,51.7606132155,-1.2613348324,111.13781,5735843.614144009,619991.6445422793,-111.13781,30U,1.393,-1.96,-0.136,0.015441090253392829,-0.007764666556258653,0.6375864352462277
1438175410991429,51.7606144976,-1.2613376691,111.149429,5735843.7520545265,619991.4453859667,-111.149429,30U,1.476,-1.949,-0.095,0.017425404579268097,-0.012121043921593362,0.6628757678796925
1438175411095239,51.7606158586,-1.2613404656,111.156342,5735843.898805377,619991.2487946255,-111.156342,30U,1.554,-1.919,-0.048,0.02119516082720749,-0.01457546698372991,0.6869487269461639
1438175411201905,51.7606172768,-1.2613432327,111.158577,5735844.051965609,619991.0540804975,-111.158577,30U,1.614,-1.902,-0.006,0.021724048973202275,-0.01575450350743364,0.7119689555682857
1438175411308572,51.7606187589,-1.2613459636,111.158524,5735844.212291493,619990.8616950762,-111.158524,30U,1.692,-1.874,0.001,0.020734074961468153,-0.016673988667557364,0.7370733812332088
1438175411415238,51.7606203097,-1.2613486582,111.158333,5735844.380316985,619990.6716325384,-111.158333,30U,1.766,-1.851,-0.004,0.019750366187820504,-0.01755751819155034,0.7605725504013772
1438175411521905,51.7606219171,-1.2613513284,111.158783,5735844.554676908,619990.4831037613,-111.158783,30U,1.817,-1.844,-0.013,0.02010469347636651,-0.01834279246624149,0.7829125430252273
1438175411628571,51.760623566,-1.2613539942,111.159973,5735844.73365914,619990.2947686062,-111.159973,30U,1.863,-1.839,-0.017,0.022258387826084268,-0.01957188171502151,0.8056603118604938
1438175411735238,51.7606252662,-1.261356636,111.160515,5735844.918385754,619990.107953661,-111.160515,30U,1.934,-1.809,0.003,0.025074304687171065,-0.020453160368163335,0.8282331235909756
1438175411833571,51.7606270628,-1.2613590258,111.145378,5735845.114247271,619989.9382733357,-111.145378,30U,2.009,-1.774,0.032,0.027922699999826446,-0.02038360000029906,0.8500262999996306
1438175411913571,51.7606288939,-1.2613615688,111.141487,5735845.3136933595,619989.7579294218,-111.141487,30U,2.072,-1.747,0.031,0.028406547529881785,-0.0198360028375301,0.871673263185057
1438175411993570,51.7606307764,-1.2613640807,111.139336,5735845.518906631,619989.579595416,-111.139336,30U,2.129,-1.73,0.009,0.028843862358529485,-0.020317528805663593,0.8937750123358972
1438175412095237,51.7606327131,-1.2613665595,111.138489,5735845.730201748,619989.4034019114,-111.138489,30U,2.194,-1.7,0.005,0.028812420918770586,-0.020888459969843513,0.9155226416916598
1438175412201903,51.7606347096,-1.2613689898,111.137367,5735845.948226808,619989.230396797,-111.137367,30U,2.258,-1.67,0.014,0.029751748453143535,-0.021242975314125754,0.9365298917845776
1438175412308570,51.7606367568,-1.2613713875,111.135406,5735846.171943669,619989.0595069593,-111.135406,30U,2.313,-1.649,0.018,0.030260902496389235,-0.021563506982532617,0.9576711910948247
1438175412414283,51.7606388579,-1.2613737424,111.133041,5735846.401724977,619988.8914278044,-111.133041,30U,2.377,-1.612,0.024,0.031048349098624542,-0.021813257810981205,0.978831595960652
1438175412505712,51.7606410136,-1.2613760454,111.13073,5735846.637663544,619988.7267854548,-111.13073,30U,2.434,-1.582,0.013,0.032818616386406894,-0.02143881961706325,0.9994201613859753
1438175412597141,51.760643215,-1.2613783107,111.129822,5735846.878746275,619988.5646235842,-111.129822,30U,2.485,-1.552,0.001,0.03355421479449517,-0.02140131494711615,1.0197302798081238
1438175412701902,51.7606454612,-1.2613805258,111.129997,5735847.124893645,619988.4058071872,-111.129997,30U,2.535,-1.521,-0.008,0.036630733967425735,-0.02163394882020896,1.0400753388736668
1438175412808568,51.7606477641,-1.2613824291,111.12104,5735847.377859403,619988.2683573808,-111.12104,30U,2.591,-1.477,0.01,0.03829990000046947,-0.021844000000283262,1.0600409999995235
1438175412915235,51.7606501074,-1.2613845164,111.118935,5735847.635015181,619988.1181028832,-111.118935,30U,2.651,-1.427,0.026,0.03947366525284105,-0.02129609385838616,1.0791874487313977
1438175413019997,51.7606524936,-1.2613865453,111.116211,5735847.897037798,619987.9717647659,-111.116211,30U,2.705,-1.389,0.034,0.03983775592544002,-0.020197838115384493,1.0978981119217854
1438175413111425,51.7606549204,-1.2613885127,111.112991,5735848.1636765795,619987.8295630547,-111.112991,30U,2.76,-1.341,0.034,0.038268852879457804,-0.01939266192977266,1.1158419472502716
1438175413202854,51.7606573779,-1.2613904242,111.110222,5735848.433821365,619987.6911375485,-111.110222,30U,2.807,-1.317,0.04,0.03840106819207556,-0.018466732940746747,1.132697923406063
1438175413308568,51.760659853,-1.2613922991,111.109314,5735848.705983604,619987.5551911102,-111.109314,30U,2.854,-1.282,0.019,0.03643619482344821,-0.01805824690566879,1.1483293012616609
1438175413414281,51.7606623514,-1.2613941148,111.109352,5735848.98083435,619987.4232682247,-111.109352,30U,2.896,-1.244,0.016,0.03678368991940818,-0.01782020443873829,1.162890097864655
1438175413505710,51.7606648864,-1.2613958879,111.110046,5735849.2598253405,619987.2941880837,-111.110046,30U,2.933,-1.219,0.021,0.03638864552883781,-0.017618570398706387,1.1766347516121476
1438175413597138,51.7606674772,-1.2613976284,111.10955,5735849.545075282,619987.1672096994,-111.10955,30U,2.964,-1.196,0.012,0.03731454075097869,-0.017132433153752066,1.1901758523021708
1438175413701900,51.7606701223,-1.2613993197,111.10907,5735849.836444677,619987.043482591,-111.10907,30U,3.0,-1.152,0.002,0.03768112315510157,-0.01644677169956014,1.2029398542620884
1438175413808566,51.7606728129,-1.2614009013,111.112701,5735850.133054444,619986.9272051116,-111.112701,30U,3.026,-1.122,-0.016,0.03859999999991313,-0.01635999999940612,1.214966799999735
1438175413915233,51.7606755125,-1.261402509,111.113403,5735850.4306221325,619986.8091026581,-111.113403,30U,3.054,-1.098,0.005,0.03971869005256115,-0.016472107110166927,1.2268025979304562
1438175414019995,51.7606782384,-1.2614040639,111.112389,5735850.731201416,619986.6945741456,-111.112389,30U,3.076,-1.058,0.012,0.03950356558955973,-0.015597509739717361,1.2378686410611763
1438175414111423,51.7606809842,-1.2614055525,111.112068,5735851.034102787,619986.5845681567,-111.112068,30U,3.102,-1.012,0.007,0.03700346005966999,-0.01542453984762021,1.2478172763890167
1438175414202851,51.7606837474,-1.2614069879,111.110504,5735851.3390266765,619986.4781873078,-111.110504,30U,3.112,-0.986,0.031,0.03583114418106914,-0.015126342173285422,1.257019528655776
1438175414308565,51.7606865151,-1.2614084096,111.107727,5735851.644473536,619986.3727399581,-111.107727,30U,3.118,-0.987,0.018,0.03746404176087496,-0.01312388223513582,1.2656011550421964
1438175414414279,51.7606892903,-1.2614098085,111.107399,5735851.950791956,619986.2688461315,-111.107399,30U,3.132,-0.955,-0.004,0.03896859629582665,-0.013114114618659424,1.2738115087121833
1438175414505708,51.7606920744,-1.2614111637,111.108955,5735852.258172009,619986.1679443971,-111.108955,30U,3.14,-0.928,-0.016,0.040609814656046864,-0.014557228116768314,1.281891057613238
1438175414597137,51.7606948674,-1.2614124736,111.109589,5735852.56661633,619986.0701451673,-111.109589,30U,3.152,-0.894,0.005,0.04081087621761214,-0.014514611623533548,1.2894228802023955
1438175414701898,51.7606976655,-1.2614137462,111.110283,5735852.875689171,619985.9749064465,-111.110283,30U,3.156,-0.878,-0.013,0.041641115345245235,-0.013990212158942274,1.296366517735229
1438175414808564,51.7607006054,-1.2614149068,111.108833,5735853.200715338,619985.8870207565,-111.108833,30U,3.157,-0.846,-0.015,0.04170989999977813,-0.01467530000020356,1.3027442999995675
1438175414915231,51.7607034172,-1.2614160829,111.109787,5735853.511470471,619985.798405065,-111.109787,30U,3.166,-0.817,0.005,0.04189757306385687,-0.015374665420144318,1.308549627303371
1438175415019993,51.7607062339,-1.2614172557,111.108971,5735853.822775948,619985.7100041193,-111.108971,30U,3.16,-0.821,-0.003,0.041913381425444714,-0.014946209371398268,1.3148809708295934
1438175415111421,51.760709043,-1.2614184412,111.112419,5735854.133215361,619985.6207469244,-111.112419,30U,3.161,-0.819,-0.035,0.04414185275762802,-0.01664015225209229,1.321675021793
1438175415202849,51.7607118637,-1.2614195793,111.113754,5735854.445022754,619985.5347299915,-111.113754,30U,3.18,-0.769,0.012,0.04667494153193925,-0.017911683384387388,1.326191888255056
1438175415308563,51.7607146954,-1.2614206787,111.11174,5735854.758117084,619985.4513545363,-111.11174,30U,3.185,-0.77,0.023,0.04970649738258162,-0.018503959096287804,1.3297913643657338
1438175415415230,51.760717528,-1.2614217868,111.110649,5735855.071297191,619985.3673763289,-111.110649,30U,3.191,-0.764,0.008,0.05165747570157764,-0.019882123897797664,1.3337128595126617
1438175415521896,51.7607203658,-1.2614228644,111.110931,5735855.38510575,619985.2854891071,-111.110931,30U,3.198,-0.735,-0.001,0.05239911494727981,-0.020766769922875777,1.3366588645192163
1438175415623562,51.7607232047,-1.2614239132,111.111145,5735855.699084019,619985.2055864232,-111.111145,30U,3.194,-0.727,0.007,0.05245703323075899,-0.019858855313072406,1.3390867943036124
1438175415703562,51.7607260354,-1.2614249596,111.110611,5735856.012154346,619985.125871109,-111.110611,30U,3.182,-0.718,0.012,0.04983404996781752,-0.01713368155984075,1.3420198771838554
1438175415783562,51.7607287605,-1.2614259341,111.107285,5735856.313599571,619985.0513974844,-111.107285,30U,3.166,-0.682,0.024,0.044221800000495255,-0.011833199999402997,1.3447189000004434
1438175415881896,51.760731619,-1.2614267574,111.104843,5735856.630128479,619984.9870042887,-111.104843,30U,3.155,-0.666,0.01,0.039019268057772685,-0.006117840386829268,1.346981929206118
1438175415988562,51.7607344122,-1.2614277408,111.103783,5735856.939132215,619984.9117359566,-111.103783,30U,3.14,-0.702,0.028,0.03818430068833361,-0.002503448008194898,1.349267483737584
1438175416095228,51.7607371952,-1.2614287519,111.100174,5735857.246956077,619984.8345831392,-111.100174,30U,3.135,-0.695,0.056,0.039133673568190835,0.0006132901393195416,1.3514238694792562
1438175416201894,51.7607399766,-1.2614297468,111.094337,5735857.5546286665,619984.7585525101,-111.094337,30U,3.141,-0.691,0.061,0.042571884182901476,0.003928927244084366,1.3533685691891981
1438175416308561,51.7607427603,-1.2614307494,111.09063,5735857.862544358,619984.6819844252,-111.09063,30U,3.137,-0.699,0.028,0.04940865810288208,0.003845619188228173,1.3552929660808546
1438175416415228,51.7607455364,-1.2614317346,111.089668,5735858.16964351,619984.6066372457,-111.089668,30U,3.128,-0.665,-0.006,0.052523848398168066,0.00338809596186183,1.356420614585667
1438175416521894,51.7607482981,-1.2614326651,111.094086,5735858.475231283,619984.5351030177,-111.094086,30U,3.107,-0.629,-0.071,0.05164112097863009,0.0031328824500767047,1.3572570264175203
1438175416625703,51.7607510336,-1.2614335474,111.107094,5735858.777984749,619984.4669644687,-111.107094,30U,3.076,-0.594,-0.175,0.04578377140677599,0.0006315876859959181,1.3577470578707724
1438175416717132,51.7607537399,-1.2614343958,111.126831,5735859.077546761,619984.4012427295,-111.126831,30U,3.045,-0.592,-0.178,0.03980281381073255,-0.005591391825411007,1.3578585399546934
1438175416808560,51.7607564377,-1.2614353054,111.141327,5735859.3760628365,619984.3313202119,-111.141327,30U,3.011,-0.623,-0.086,0.037858700000838984,-0.010120599999300105,1.3586563000006942
1438175416915226,51.7607590786,-1.2614361906,111.146507,5735859.66829141,619984.2632323615,-111.146507,30U,2.983,-0.62,-0.019,0.038360914686537254,-0.01084587787060495,1.3593428815750142
1438175417019988,51.7607616972,-1.2614370694,111.148872,5735859.958050615,619984.1956452946,-111.148872,30U,2.953,-0.598,-0.019,0.03898439609482918,-0.010403500000622177,1.359466339050593
1438175417111416,51.7607642938,-1.2614379356,111.148674,5735860.245384008,619984.1289860667,-111.148674,30U,2.934,-0.605,0.048,0.03996266191434215,-0.009027047717919697,1.3603927059270204
1438175417202845,51.7607668688,-1.2614388244,111.144699,5735860.530278163,619984.060824519,-111.144699,30U,2.911,-0.61,0.038,0.041120289571451786,-0.006515217886419815,1.3620657920673023
1438175417294273,51.7607694247,-1.2614396836,111.144417,5735860.813096975,619983.9947562673,-111.144417,30U,2.89,-0.576,-0.014,0.04286666162451293,-0.006385869954286214,1.3624693975038027
1438175417385702,51.7607719554,-1.261440517,111.148987,5735861.093155835,619983.9305352502,-111.148987,30U,2.862,-0.571,-0.051,0.04316711228329259,-0.007807683745673752,1.362220008445456
1438175417488559,51.7607744619,-1.2614413466,111.154633,5735861.37052975,619983.8666406309,-111.154633,30U,2.84,-0.568,-0.031,0.042565345788569756,-0.00880035967893361,1.362674242450494
1438175417595225,51.7607769493,-1.2614421686,111.157394,5735861.645792131,619983.8033211187,-111.157394,30U,2.821,-0.558,-0.005,0.04173266833125187,-0.008956837855444898,1.3629678263853486
1438175417701892,51.7607794191,-1.2614429855,111.158554,5735861.919105669,619983.7404002169,-111.158554,30U,2.801,-0.562,-0.002,0.043056229051508486,-0.009556414977738105,1.3624032631230125
1438175417808558,51.7607818678,-1.2614438143,111.161217,5735862.190053177,619983.67671406,-111.161217,30U,2.778,-0.572,-0.023,0.04511250000028054,-0.011448599999415762,1.3618510999991513
1438175417915224,51.760784299,-1.2614446525,111.165169,5735862.45903911,619983.6124256247,-111.165169,30U,2.759,-0.56,-0.028,0.04745736899136083,-0.013216133143403735,1.3617274662208834
1438175418021890,51.7607867089,-1.2614454658,111.1698,5735862.7256973125,619983.5499119769,-111.1698,30U,2.744,-0.544,-0.036,0.04869349710589025,-0.015246048484261329,1.3610863582385475
1438175418128557,51.7607891045,-1.2614462634,111.173882,5735862.990791094,619983.4885196785,-111.173882,30U,2.729,-0.538,-0.017,0.04871865569719052,-0.017708022573780288,1.3602052482854405
1438175418231414,51.7607914832,-1.2614470683,111.175591,5735863.25399348,619983.4266684296,-111.175591,30U,2.709,-0.548,0.008,0.049292482512697806,-0.018703323201237135,1.3597389584535011
1438175418322842,51.7607938446,-1.2614478855,111.176529,5735863.515251758,619983.3640142473,-111.176529,30U,2.691,-0.551,-0.0,0.050504503184903585,-0.019137751318133892,1.3591519157116823
1438175418414270,51.7607961874,-1.2614486932,111.178162,5735863.774457228,619983.3020649627,-111.178162,30U,2.675,-0.531,-0.005,0.050190221294456695,-0.019699677970910275,1.3580749380176114
1438175418505699,51.760798512,-1.2614494853,111.180527,5735864.031664409,619983.2412404673,-111.180527,30U,2.65,-0.531,-0.008,0.05033469678410615,-0.01979022895815734,1.3573012479940751
1438175418597128,51.7608008109,-1.2614502901,111.182343,5735864.285992692,619983.1796077043,-111.182343,30U,2.625,-0.539,0.008,0.04977884661554831,-0.01841523120841887,1.3570083420218968
1438175418701890,51.7608030905,-1.2614510998,111.182098,5735864.538166636,619983.1176879733,-111.182098,30U,2.605,-0.535,0.027,0.049702641040947425,-0.016646171959004925,1.3565755041652388
1438175418808556,51.7608053698,-1.2614519514,111.18045,5735864.790238283,619983.0528775891,-111.18045,30U,2.59,-0.524,0.044,0.048837100000726885,-0.01462000000032701,1.3557982999997935
1438175418899984,51.7608076098,-1.2614527175,111.17823,5735865.038080181,619982.9940716224,-111.17823,30U,2.574,-0.532,0.027,0.04846799556092829,-0.013556007210315656,1.3552010662211311
1438175418991412,51.7608098407,-1.2614535328,111.176956,5735865.284829161,619982.931894572,-111.176956,30U,2.562,-0.538,0.036,0.04840966825430291,-0.013285549586181895,1.3547508012710905
1438175419095222,51.7608120607,-1.2614543471,111.174614,5735865.530367639,619982.8698154332,-111.174614,30U,2.55,-0.535,0.043,0.05136142151671177,-0.01221839110226531,1.3535262583152872
1438175419201888,51.7608142686,-1.2614551722,111.173065,5735865.774542753,619982.8070230884,-111.173065,30U,2.533,-0.543,0.015,0.05375784439579398,-0.011848838975041603,1.3518650386982598
1438175419308555,51.7608164637,-1.2614560043,111.173759,5735866.017282908,619982.7437816242,-111.173759,30U,2.525,-0.54,0.018,0.055069770505165386,-0.012800519939388195,1.3504644580240466
1438175419415221,51.7608186496,-1.261456823,111.173996,5735866.25902201,619982.6814892697,-111.173996,30U,2.516,-0.522,0.013,0.053962013784873135,-0.013319329372694061,1.3486802643527371
1438175419521888,51.7608208242,-1.2614576265,111.175354,5735866.49952949,619982.6202758044,-111.175354,30U,2.501,-0.519,-0.002,0.051877189586387,-0.013878402419124749,1.3460435260016075
1438175419628554,51.7608229772,-1.2614584485,111.179543,5735866.737604476,619982.5578429557,-111.179543,30U,2.47,-0.542,-0.044,0.050430389616049356,-0.015693128974616662,1.342757377976394
1438175419735220,51.7608251051,-1.2614592961,111.185806,5735866.972846066,619982.4937100402,-111.185806,30U,2.446,-0.544,-0.034,0.04990595816306355,-0.018341291701250935,1.3384821580076338
1438175419833553,51.7608272122,-1.2614601401,111.190765,5735867.2057804875,619982.4298807048,-111.190765,30U,2.416,-0.541,-0.028,0.04979350000026765,-0.020327199999680134,1.3326124000000092
1438175419913553,51.7608292906,-1.261460975,111.194466,5735867.43553826,619982.3667554386,-111.194466,30U,2.387,-0.537,0.004,0.048529303839301534,-0.022153539853841768,1.3252553949591102
1438175419993553,51.760831338,-1.2614618307,111.194481,5735867.661814416,619982.3022769886,-111.194481,30U,2.352,-0.556,0.026,0.047845442236702104,-0.022244877703583476,1.317283789980846
1438175420095220,51.7608333499,-1.2614627276,111.19474,5735867.8840749655,619982.2350495147,-111.19474,30U,2.307,-0.579,0.016,0.04836782392090915,-0.023441636693211042,1.3083591849585294
1438175420201887,51.7608353228,-1.2614636533,111.195,5735868.101951088,619982.1659379995,-111.195,30U,2.271,-0.597,0.03,0.049081461961049,-0.023785718316107863,1.2984938519880453
1438175420308553,51.7608372718,-1.2614645997,111.193298,5735868.317135324,619982.0954613786,-111.193298,30U,2.252,-0.604,0.046,0.0496158590660401,-0.02310181900392462,1.2883611459836275
1438175420414266,51.7608392036,-1.261465562,111.191124,5735868.530380654,619982.0239331297,-111.191124,30U,2.235,-0.613,0.043,0.04853470821118776,-0.02255867306430276,1.2770946281373592
1438175420505695,51.7608411218,-1.2614665474,111.189613,5735868.7420755755,619981.9508468483,-111.189613,30U,2.22,-0.638,0.035,0.04756453384280679,-0.02242979203741466,1.265087491956536
1438175420597123,51.7608430239,-1.2614675844,111.188759,5735868.951895185,619981.8742424252,-111.188759,30U,2.2,-0.671,0.03,0.046561120994799844,-0.022869576615164346,1.2525324504855366
1438175420701885,51.7608449114,-1.2614686562,111.187668,5735869.160033932,619981.7952752217,-111.187668,30U,2.184,-0.688,0.04,0.0458691732922479,-0.023149836446454946,1.2381974219392808
1438175420808551,51.7608467989,-1.261469796,111.186317,5735869.368060811,619981.711615456,-111.186317,30U,2.163,-0.721,0.038,0.045979700000389714,-0.02298449999967815,1.2225262999992264
1438175420915218,51.760848653,-1.2614709614,111.185509,5735869.572331282,619981.6262776307,-111.185509,30U,2.14,-0.76,0.035,0.045957286749170975,-0.02359910814358096,1.2058542153200764
1438175421019980,51.7608504857,-1.2614721746,111.184288,5735869.774143301,619981.5376979467,-111.184288,30U,2.124,-0.784,0.043,0.04564467310900031,-0.02438756195961963,1.1874291290890924
1438175421111408,51.760852303,-1.2614734399,111.181465,5735869.974157032,619981.4455637612,-111.181465,30U,2.093,-0.83,0.048,0.04550116526654008,-0.024398883460182368,1.1679557834538303
1438175421202836,51.7608540968,-1.261474763,111.180153,5735870.171462324,619981.3495032019,-111.180153,30U,2.078,-0.859,0.047,0.04412771526780095,-0.02460450517612935,1.1475732415855704
1438175421308550,51.7608558699,-1.2614761389,111.178307,5735870.366378783,619981.2498538871,-111.178307,30U,2.045,-0.898,0.03,0.0442703325106318,-0.024972577335705865,1.1258163828554195
1438175421414264,51.7608576148,-1.2614775684,111.178963,5735870.558071046,619981.1465804933,-111.178963,30U,2.011,-0.934,0.015,0.04356734749598857,-0.026716601334492444,1.1021216301068333
1438175421505693,51.7608593247,-1.2614790573,111.179428,5735870.745773366,619981.0393008015,-111.179428,30U,1.966,-0.972,0.031,0.043413743766799566,-0.02679143153030156,1.0776797266210758
1438175421597122,51.7608609983,-1.2614805928,111.178299,5735870.929362235,619980.9289015637,-111.178299,30U,1.93,-0.993,0.033,0.040110168023375366,-0.0247287523416361,1.0520357972795698
1438175421701883,51.7608626388,-1.2614821583,111.177017,5735871.10922082,619980.8165198355,-111.177017,30U,1.883,-1.028,0.053,0.037433812464498874,-0.023061968667313373,1.0242108699280537
1438175421808549,51.7608642405,-1.2614838363,111.173981,5735871.284579523,619980.6964775409,-111.173981,30U,1.815,-1.093,0.063,0.0350733000000665,-0.021137599999376415,0.9950636000001056
1438175421915216,51.7608657823,-1.2614855579,111.171257,5735871.453205241,619980.5735852917,-111.171257,30U,1.774,-1.126,0.048,0.03344672089437999,-0.020292690353126697,0.9644122086109893
1438175422019978,51.7608672881,-1.2614873275,111.168922,5735871.617748567,619980.4474760923,-111.168922,30U,1.736,-1.167,0.054,0.030937222449260324,-0.019933855160120806,0.9325401420396104
1438175422111406,51.7608687508,-1.2614891745,111.165817,5735871.777371567,619980.3161399172,-111.165817,30U,1.676,-1.226,0.061,0.028741082311725945,-0.01929300764199574,0.9005005455160857
1438175422202834,51.7608701616,-1.2614910945,111.161949,5735871.931102865,619980.1799037355,-111.161949,30U,1.623,-1.264,0.068,0.026680662081767385,-0.01819911788549649,0.8675698419785033
1438175422308548,51.7608715317,-1.2614930637,111.157509,5735872.080227129,619980.0403802522,-111.157509,30U,1.575,-1.306,0.076,0.025136509954824096,-0.01670670413483837,0.8330341388688494
1438175422414262,51.7608728494,-1.2614951145,111.152634,5735872.22338994,619979.8953646153,-111.152634,30U,1.507,-1.364,0.073,0.023508757911085768,-0.015455059278804506,0.7984654194599835
1438175422505691,51.7608741153,-1.2614972203,111.148201,5735872.3607017845,619979.7466908558,-111.148201,30U,1.457,-1.385,0.062,0.021629151438929992,-0.013909890199120624,0.7631601746724834
1438175422597118,51.7608753286,-1.2614993572,111.147087,5735872.492113016,619979.5960103936,-111.147087,30U,1.376,-1.418,0.01,0.02053078009229999,-0.013633343859500928,0.7261873021449997
1438175422701880,51.760876458,-1.2615015553,111.150345,5735872.614093355,619979.4413290559,-111.150345,30U,1.283,-1.457,-0.013,0.02241364946447369,-0.015302606034006508,0.6893161699716843
1438175422808547,51.7608775381,-1.2615038008,111.153435,5735872.730513247,619979.2835074306,-111.153435,30U,1.231,-1.461,0.017,0.023272700000451847,-0.015972400000091525,0.6515481000005635
1438175422915214,51.7608785428,-1.2615060333,111.151703,5735872.8385695685,619979.1267828131,-111.151703,30U,1.176,-1.476,0.02,0.021339275300737162,-0.015099847396307068,0.6126068915213149
1438175423019976,51.7608795166,-1.2615082994,111.153084,5735872.943134343,619978.9678214404,-111.153084,30U,1.122,-1.503,0.014,0.016392758911422868,-0.016102813492385383,0.5734156093573767
1438175423111404,51.7608804361,-1.2615106166,111.152603,5735873.041576553,619978.805477704,-111.152603,30U,1.042,-1.544,0.037,0.011492653153442993,-0.017117825039382858,0.5351583127880979
1438175423202832,51.7608812772,-1.2615129826,111.15242,5735873.131219909,619978.6399742125,-111.15242,30U,0.96,-1.566,0.02,0.006932130748117523,-0.018764007627377215,0.49775013030738635
1438175423308546,51.7608820556,-1.2615153621,111.153519,5735873.213868419,619978.4737053359,-111.153519,30U,0.896,-1.573,0.018,0.004716296891262294,-0.020450699234006532,0.4597198798942215
1438175423415213,51.760882773,-1.2615177622,111.152794,5735873.2896994585,619978.30617661,-111.152794,30U,0.816,-1.597,0.043,0.0032518270365351877,-0.0205269116153915,0.4216222278708015
1438175423521879,51.760883423,-1.2615201871,111.152161,5735873.357994395,619978.1371151645,-111.152161,30U,0.743,-1.608,0.019,0.001801377533862399,-0.020960097244611068,0.384188005330723
1438175423623545,51.7608840141,-1.26152262,111.153099,5735873.419726121,619977.9676578055,-111.153099,30U,0.685,-1.61,0.016,-0.0006096966931399153,-0.021927582297979493,0.3472543833242919
1438175423703545,51.7608845512,-1.261525056,111.153625,5735873.475447613,619977.7981296815,-111.153625,30U,0.612,-1.615,0.025,-0.0019280953298624036,-0.02210033474648646,0.3108902769851108
1438175423783545,51.7608850611,-1.261527599,111.154602,5735873.527968269,619977.6212897813,-111.154602,30U,0.529,-1.615,0.029,-0.002828300000054965,-0.02159759999979498,0.2756938999999692
1438175423881878,51.7608853592,-1.2615299302,111.151428,5735873.557283851,619977.459627337,-111.151428,30U,0.483,-1.609,0.031,-0.003703448564680934,-0.021347159012309616,0.24053577399803477
1438175423988544,51.7608857187,-1.2615323569,111.150162,5735873.593270407,619977.2912118271,-111.150162,30U,0.421,-1.616,0.036,-0.0032385413319602776,-0.021590398331478283,0.20588320502571347
1438175424095211,51.7608860269,-1.2615347827,111.149376,5735873.62355356,619977.1229944252,-111.149376,30U,0.37,-1.609,0.026,-0.003554702924558278,-0.022167744839041666,0.17217311519511794
1438175424201877,51.7608863011,-1.2615371894,111.150291,5735873.650087124,619976.9561852204,-111.150291,30U,0.335,-1.598,0.009,-0.005653312037163951,-0.022985893950518487,0.1381314386863856
1438175424308544,51.7608865275,-1.2615395845,111.151215,5735873.6713241115,619976.7903032337,-111.151215,30U,0.259,-1.591,0.021,-0.008100781531282299,-0.023581103690045867,0.10455665377119366
1438175424415210,51.7608866816,-1.2615419585,111.15065,5735873.684555596,619976.6260689925,-111.15065,30U,0.179,-1.572,0.035,-0.008998520426487583,-0.023270586247902722,0.07249067446672322
1438175424521876,51.7608867843,-1.2615442967,111.14975,5735873.6921299705,619976.4644415122,-111.14975,30U,0.14,-1.548,0.029,-0.009030552403634885,-0.02272162240506298,0.040321613632510224
1438175424625686,51.7608868555,-1.2615466065,111.148827,5735873.69624807,619976.3048573773,-111.148827,30U,0.096,-1.536,0.038,-0.009098711041726342,-0.022362901669004107,0.007790007185399905
1438175424717115,51.7608868754,-1.2615489006,111.146927,5735873.694687118,619976.1464926697,-111.146927,30U,0.031,-1.526,0.04,-0.008782065144695522,-0.021242279447862326,-0.022898061372922593
1438175424808543,51.7608868649,-1.2615511326,111.143196,5735873.689847655,619975.9924939687,-111.143196,30U,-0.003,-1.508,0.027,-0.009201600000565864,-0.020519300000649436,-0.05232820717999701
1438175424915209,51.7608867333,-1.2615533077,111.140633,5735873.6716347085,619975.8427428786,-111.140633,30U,-0.037,-1.486,0.028,-0.009558998899298439,-0.019916126768804162,-0.08140599459223728
1438175425019971,51.7608866434,-1.2615555153,111.139824,5735873.658005608,619975.6906384696,-111.139824,30U,-0.089,-1.464,0.032,-0.01051193857590295,-0.018784860521083416,-0.10930134137314747
1438175425111399,51.7608865115,-1.261557688,111.13855,5735873.6397632575,619975.5410537923,-111.13855,30U,-0.131,-1.44,0.036,-0.010792312235822037,-0.017463958820414176,-0.13572432758898778
1438175425202828,51.7608863478,-1.2615598183,111.137276,5735873.618054301,619975.3944793689,-111.137276,30U,-0.164,-1.408,0.032,-0.010407153093428989,-0.01598349526758596,-0.16110877377612642
1438175425294256,51.7608861577,-1.2615619048,111.136131,5735873.593481552,619975.2509974937,-111.136131,30U,-0.19,-1.383,0.036,-0.010701703797571979,-0.014248064685350902,-0.1855191295193563
1438175425385684,51.7608859462,-1.2615639575,111.134392,5735873.566584595,619975.1099048299,-111.134392,30U,-0.221,-1.364,0.037,-0.011056632510870256,-0.012650802236393312,-0.2083905960608105
1438175425488541,51.760885702,-1.2615659753,111.132767,5735873.536108606,619974.9713072423,-111.132767,30U,-0.261,-1.337,0.038,-0.01086446793271863,-0.01126755632415463,-0.22862819570347256
1438175425595208,51.7608854319,-1.2615679551,111.130569,5735873.502814887,619974.8354006297,-111.130569,30U,-0.279,-1.315,0.045,-0.01088599927953831,-0.0093242628783507,-0.24676398738709462
1438175425701874,51.7608851471,-1.2615699017,111.128189,5735873.467941054,619974.7018240603,-111.128189,30U,-0.301,-1.292,0.042,-0.009944803261990681,-0.007460130228307727,-0.26327256651348613
1438175425808540,51.7608848536,-1.261571752,111.122879,5735873.432258148,619974.5749160533,-111.122879,30U,-0.321,-1.262,0.039,-0.009683600000124198,-0.006099900000840361,-0.2780437071802565
1438175425915207,51.7608845033,-1.261573531,111.121246,5735873.390376016,619974.4530789125,-111.121246,30U,-0.315,-1.219,0.03,-0.010053327335715522,-0.004775866922929648,-0.2921330042726484
1438175426021873,51.7608841955,-1.2615753138,111.121094,5735873.353213905,619974.330866872,-111.121094,30U,-0.324,-1.166,0.016,-0.009658466309436366,-0.004138415527549633,-0.30545309769289314
1438175426128540,51.7608838757,-1.2615770118,111.121407,5735873.314856822,619974.214538545,-111.121407,30U,-0.338,-1.103,0.019,-0.008317534210197581,-0.003931132755573588,-0.31653927928424347
1438175426231397,51.7608835553,-1.261578623,111.121216,5735873.276575806,619974.1042017298,-111.121216,30U,-0.325,-1.051,0.022,-0.007022813322718217,-0.0034125274734303286,-0.32571587367859933
1438175426322825,51.7608832533,-1.2615801667,111.121109,5735873.240452031,619973.9984741951,-111.121109,30U,-0.306,-1.008,0.017,-0.006587168622321031,-0.003129213246135566,-0.3341038096973468
